,state,county,Per Capita Income 2021,Adjusted Per Capita Personal Income 2021,Count of Associate Degrees,Count of Bachelor Degrees or Higher,Percent of No College,Percent of Associate Degrees,Percent of Bachelor Degrees of Higher,costIndex,Lat,Lng
0,VA,"Arlington, VA",107603,105700.39,19573,132394,12.949999999999989,11.21,75.84,101.8,38.8903961,-77.0841585
1,VA,"Loudoun, VA",90254,88658.15,52006,160853,18.46,19.92,61.62,101.8,39.0984586,-77.6705008
2,VA,"Henrico, VA",74650,73330.06,60829,101632,29.250000000000007,26.49,44.26,101.8,37.4957023,-77.335257
3,VA,"Goochland, VA",110781,108822.2,4586,7705,30.120000000000005,26.07,43.81,101.8,37.6824439,-77.884925
4,VA,"Stafford, VA",62954,61840.86,28316,39872,29.29,29.36,41.35,101.8,38.4222681,-77.4084067
5,VA,"Hanover, VA",68934,67715.13,20623,29774,31.749999999999993,27.93,40.32,101.8,37.766531,-77.3702584
6,VA,"Chesterfield, VA",61200,60117.88,69141,94139,30.53,29.42,40.05,101.8,37.3770935,-77.5058196
7,VA,"Fauquier, VA",78810,77416.5,15045,17838,32.38,30.94,36.68,101.8,38.7513714,-77.8141221
8,VA,"Fluvanna, VA",53612,52664.05,6531,7039,31.369999999999997,33.03,35.6,101.8,37.8488527,-78.2789994
9,VA,"King George, VA",62077,60979.37,5349,6294,34.410000000000004,30.13,35.46,101.8,38.2681837,-77.1844222
10,VA,"Clarke, VA",75403,74069.74,2968,3670,37.3,28.03,34.67,101.8,39.119728,-77.9926448
11,VA,"Rappahannock, VA",76181,74833.99,1706,1872,34.8,31.09,34.11,101.8,38.6926326,-78.1495818
12,VA,"Lancaster, VA",70474,69227.9,2220,2922,40.300000000000004,25.77,33.93,101.8,37.7698602,-76.4663391
13,VA,"Northumberland, VA",63005,61890.96,2761,3178,39.05,28.34,32.61,101.8,37.9314992,-76.4836686
14,VA,"New Kent, VA",90086,88493.12,5068,5276,37.13,30.8,32.07,101.8,37.5178648,-76.9783631
15,VA,"Nelson, VA",63085,61969.55,2026,3431,50.88000000000001,18.24,30.88,101.8,36.5623629,-78.7047266
16,VA,"Bedford, VA",53861,52908.64,17720,17699,38.26,30.89,30.85,101.8,37.3344561,-79.5235083
17,VA,"Highland, VA",50196,49308.45,402,520,45.56999999999999,23.73,30.7,101.8,37.1648454,-80.6786765
18,VA,"Powhatan, VA",67031,65845.78,6303,6680,40.57000000000001,28.85,30.58,101.8,37.5420237,-77.9190619
19,VA,"Greene, VA",51152,50247.54,3856,4106,41.879999999999995,28.15,29.97,101.8,38.2954503,-78.4704823
20,VA,"Mathews, VA",66906,65722.99,2383,1982,36.0,34.94,29.06,101.8,37.4337395,-76.32107
21,VA,"Isle of Wight, VA",63005,61890.96,8300,7470,40.83,31.14,28.03,101.8,36.8953677,-76.7248143
22,VA,"Botetourt, VA",57997,56971.51,7988,6643,40.76,32.34,26.9,101.8,37.5520825,-79.8029569
23,VA,"Middlesex, VA",59146,58100.2,2536,2221,42.47,30.67,26.86,101.8,37.5792995,-75.8368758
24,VA,"Northampton, VA",63928,62797.64,2169,2291,49.1,24.75,26.15,101.8,37.0451503,-76.4238374
25,VA,"King and Queen, VA",55935,54945.97,1551,1393,45.41,28.76,25.83,101.8,37.7196754,-76.8794158
26,VA,"Orange, VA",57849,56826.13,7190,6671,46.57999999999999,27.71,25.71,101.8,38.2454106,-78.1108342
27,VA,"Prince Edward, VA",38883,38195.48,3374,3358,48.97,25.58,25.45,101.8,37.2293293,-78.4628573
28,VA,"Culpeper, VA",55336,54357.56,10852,8846,43.99,30.86,25.15,101.8,38.4733823,-77.9961275
29,VA,"Louisa, VA",50089,49203.34,7842,6699,45.4,29.45,25.15,101.8,38.0250438,-78.0035745
30,VA,"Madison, VA",55148,54172.89,2814,2368,46.400000000000006,29.11,24.49,101.8,38.3804062,-78.2575035
31,VA,"King William, VA",53900,52946.95,4388,2850,38.81,37.1,24.09,101.8,37.687363,-77.0135874
32,VA,"Gloucester, VA",55944,54954.81,9331,6562,41.870000000000005,34.13,24.0,101.8,37.413752,-76.5255062
33,VA,"Mecklenburg, VA",46019,45205.3,6771,5283,47.29,29.61,23.1,101.8,36.6798483,-78.314746
34,VA,"Franklin, VA",50264,49375.25,12825,9302,45.92999999999999,31.34,22.73,101.8,36.6776507,-76.9224609
35,VA,"Caroline, VA",49650,48772.1,5629,4510,50.89999999999999,27.26,21.84,101.8,38.0320305,-77.362363
36,VA,"Floyd, VA",47376,46538.31,3624,2539,47.349999999999994,30.96,21.69,101.8,36.9112443,-80.3200502
37,VA,"Craig, VA",47457,46617.88,1255,834,45.72,32.61,21.67,101.8,36.6148598,-80.0308778
38,VA,"Appomattox, VA",44943,44148.33,3319,2420,49.1,29.44,21.46,101.8,37.3586336,-78.8265053
39,VA,"Amherst, VA",44051,43272.1,6260,4882,51.33,27.34,21.33,101.8,37.5851412,-79.0514134
40,VA,"Warren, VA",54290,53330.06,8578,5772,48.33,30.89,20.78,101.8,37.7659764,-78.557789
41,VA,"Surry, VA",51892,50974.46,1479,1005,49.599999999999994,30.01,20.39,101.8,37.1381363,-76.834945
42,VA,"Pulaski, VA",47174,46339.88,9133,5054,44.64,35.64,19.72,101.8,37.0478983,-80.7797935
43,VA,"Accomack, VA",57520,56502.95,6172,4693,54.37,25.92,19.71,101.8,37.7422207,-75.6743538
44,VA,"Shenandoah, VA",53753,52802.55,8534,6121,52.949999999999996,27.4,19.65,101.8,38.4851245,-78.625016
45,VA,"Giles, VA",48098,47247.54,3975,2373,47.75999999999999,32.71,19.53,101.8,37.3088528,-80.7098781
46,VA,"Wythe, VA",43593,42822.2,6225,4015,51.519999999999996,29.47,19.01,101.8,36.9118401,-81.0639347
47,VA,"Westmoreland, VA",50190,49302.55,3915,2440,52.34,29.36,18.3,101.8,38.0865259,-78.4544553
48,VA,"Amelia, VA",50973,50071.71,2285,1685,57.169999999999995,24.65,18.18,101.8,37.44734775,-77.88214138505573
49,VA,"Richmond, VA",44749,43957.76,1832,1250,55.47,26.47,18.06,101.8,37.5385087,-77.43428
50,VA,"Bath, VA",72157,70881.14,1057,586,51.220000000000006,31.38,17.4,101.8,51.3814544,-2.358865873946672
51,VA,"Cumberland, VA",47040,46208.25,2463,1202,49.55,33.9,16.55,101.8,37.4966375,-78.2446058
52,VA,"Charles City, VA",58882,57840.86,1393,886,58.28,25.5,16.22,101.8,37.3434765,-77.0730198
53,VA,"Essex, VA",51780,50864.44,2414,1273,53.03,30.75,16.22,101.8,37.9140592,-76.9326385
54,VA,"Halifax, VA",43557,42786.84,7370,3977,54.120000000000005,29.8,16.08,101.8,36.7662555,-78.9288291
55,VA,"Grayson, VA",38600,37917.49,3630,1921,53.65,30.31,16.04,101.8,36.7676248,-80.9486916
56,VA,"Nottoway, VA",42851,42093.32,3120,1720,56.33,28.15,15.52,101.8,37.1307774,-78.0766384
57,VA,"Tazewell, VA",43786,43011.79,9402,4567,53.620000000000005,31.22,15.16,101.8,37.116249,-81.5194582
58,VA,"Scott, VA",39583,38883.1,5032,2453,54.150000000000006,30.82,15.03,101.8,36.7117473,-82.5893052
59,VA,"Patrick, VA",39564,38864.44,4168,2016,54.27000000000001,30.82,14.91,101.8,36.6818706,-80.284636
60,VA,"Smyth, VA",44740,43948.92,6957,3337,54.1,31.02,14.88,101.8,36.8440149,-81.5418453
61,VA,"Brunswick, VA",40151,39441.06,3181,1830,59.370000000000005,25.79,14.84,101.8,36.6476474,-77.8705464
62,VA,"Page, VA",47157,46323.18,4000,2500,62.77,22.91,14.32,101.8,37.1798335,-81.9954056
63,VA,"Charlotte, VA",43870,43094.3,2669,1165,54.25000000000001,31.85,13.9,101.8,37.0416273,-78.6523968
64,VA,"Bland, VA",42820,42062.87,1601,664,54.29,32.31,13.4,101.8,37.1020628,-81.1162022
65,VA,"Sussex, VA",39243,38549.12,2194,1102,60.24,26.47,13.29,101.8,36.91515,-77.2791383
66,VA,"Buckingham, VA",37220,36561.89,3353,1636,61.43,25.92,12.65,101.8,37.5501459,-78.5555608
67,VA,"Lunenburg, VA",40149,39439.1,2636,1116,58.06999999999999,29.46,12.47,101.8,36.9609839,-78.2655525
68,VA,"Buchanan, VA",44003,43224.95,3855,1908,64.39000000000001,23.82,11.79,101.8,37.5273566,-79.6797614
69,VA,"Dickenson, VA",41437,40704.32,3266,1221,58.260000000000005,30.38,11.36,101.8,37.1226368,-82.359691
70,VA,"Russell, VA",40061,39352.65,6490,2024,57.02000000000001,32.76,10.22,101.8,37.0826108,-81.9970715
71,VA,"Lee, VA",38300,37622.79,6158,1722,56.010000000000005,34.38,9.61,101.8,37.611536,-77.8163845
72,NM,"Los Alamos, NM",81306,89347.25,2766,9098,11.900000000000006,20.54,67.56,91.0,35.88137,-106.298959
73,NM,"Santa Fe, NM",69528,76404.4,29296,45681,33.2,26.1,40.7,91.0,35.6876096,-105.938456
74,NM,"Bernalillo, NM",53616,58918.68,149383,165802,32.93000000000001,31.79,35.28,91.0,35.3009305,-106.551425
75,NM,"Taos, NM",44709,49130.77,8344,7986,33.99000000000001,33.73,32.28,91.0,36.4072377,-105.573284
76,NM,"Sandoval, NM",51807,56930.77,34601,30989,34.45,34.58,30.97,91.0,35.5910806,-106.8472167
77,NM,"Grant, NM",48537,53337.36,6677,5115,40.92,33.45,25.63,91.0,32.7548776,-108.3634144
78,NM,"Lincoln, NM",47703,52420.88,4786,3739,42.72,32.16,25.12,91.0,33.7525727,-105.4158806
79,NM,"Harding, NM",49695,54609.89,132,80,35.56,40.12,24.32,91.0,35.8996832,-103.7873945
80,NM,"Sierra, NM",49778,54701.1,3215,1930,41.19,36.75,22.06,91.0,33.1165937,-107.2569421
81,NM,"San Miguel, NM",44889,49328.57,7119,4346,41.86,36.1,22.04,91.0,32.1553751,-106.7349993
82,NM,"Socorro, NM",42389,46581.32,2488,2388,55.05999999999999,22.93,22.01,91.0,34.0572858,-106.8930799
83,NM,"Roosevelt, NM",45456,49951.65,2969,2378,50.81999999999999,27.31,21.87,91.0,33.972525,-103.4933903
84,NM,"Colfax, NM",47563,52267.03,3257,1954,42.86999999999999,35.71,21.42,91.0,36.5967008,-104.7383283
85,NM,"Curry, NM",52015,57159.34,10656,6170,44.86,34.92,20.22,91.0,34.5220133,-103.3099435
86,NM,"Hidalgo, NM",51465,56554.95,880,601,50.980000000000004,29.13,19.89,91.0,31.801493,-108.7598468
87,NM,"Valencia, NM",43485,47785.71,16832,10302,47.66999999999999,32.46,19.87,91.0,34.7325886,-106.8503919
88,NM,"Otero, NM",41657,45776.92,17678,8365,41.239999999999995,39.89,18.87,91.0,32.5059533,-105.8063662
89,NM,"Rio Arriba, NM",42467,46667.03,9257,4944,46.970000000000006,34.57,18.46,91.0,36.5488273,-106.8155233
90,NM,"Chaves, NM",45577,50084.62,14537,7321,47.220000000000006,35.1,17.68,91.0,33.2993426,-104.5133481
91,NM,"Mora, NM",51939,57075.82,1245,628,47.58,34.84,17.58,91.0,35.9741536,-105.329942
92,NM,"Cibola, NM",34627,38051.65,6159,3154,48.879999999999995,33.81,17.31,91.0,34.8722771,-107.9398474
93,NM,"Eddy, NM",62888,69107.69,12725,6433,48.86999999999999,33.96,17.17,91.0,32.4003136,-104.345259
94,NM,"Catron, NM",37990,41747.25,973,476,49.30000000000001,34.04,16.66,91.0,33.9026943,-108.3800825
95,NM,"Torrance, NM",41423,45519.78,3625,1659,50.349999999999994,34.06,15.59,91.0,34.6356278,-105.9059678
96,NM,"San Juan, NM",41735,45862.64,33960,12581,42.96,41.62,15.42,91.0,36.4755752,-108.3046555
97,NM,"Quay, NM",44798,49228.57,1780,927,55.07000000000001,29.54,15.39,91.0,35.1439219,-103.4183431
98,NM,"Lea, NM",48578,53382.42,12229,6160,56.44999999999999,28.96,14.59,91.0,32.7448727,-103.3828242
99,NM,"De Baca, NM",56384,61960.44,387,125,45.589999999999996,41.13,13.28,91.0,34.2989792,-104.4155765
100,NM,"Luna, NM",38494,42301.1,3438,2019,64.71,22.23,13.06,91.0,32.1345966,-107.7682754
101,NM,"Union, NM",41350,45439.56,808,370,60.32999999999999,27.21,12.46,91.0,36.3985203,-103.4132264
102,NM,"McKinley, NM",34939,38394.51,13469,5121,58.08,30.37,11.55,91.0,35.6438394,-108.1515609
103,NM,"Guadalupe, NM",43255,47532.97,909,292,64.97,26.51,8.52,91.0,34.8980615,-104.8282135
104,CO,"Boulder, CO",89593,85083.57,45834,135876,15.790000000000006,21.24,62.97,105.3,40.0149856,-105.270545
105,CO,"Pitkin, CO",198939,188925.93,2932,8459,17.629999999999995,21.2,61.17,105.3,39.2037774,-106.8695332
106,CO,"Douglas, CO",87841,83419.75,61914,134307,14.370000000000005,27.02,58.61,105.3,39.3420437,-104.9468945
107,CO,"Gunnison, CO",59514,56518.52,2434,6228,20.020000000000003,22.47,57.51,105.3,38.6476702,-107.0603126
108,CO,"San Miguel, CO",109613,104095.92,1288,3475,22.409999999999997,20.98,56.61,105.3,38.0292476,-108.4712533
109,CO,"Broomfield, CO",73678,69969.61,13009,27160,17.090000000000003,26.85,56.06,105.3,39.9403995,-105.05208
110,CO,"Mineral, CO",70250,66714.15,189,379,18.86,27.0,54.14,105.3,37.6584133,-106.9311267
111,CO,"Summit, CO",86390,82041.79,5832,12656,21.730000000000004,24.69,53.58,105.3,39.6070951,-106.0636654
112,CO,"Clear Creek, CO",77242,73354.23,1960,3788,22.839999999999996,26.31,50.85,105.3,39.6754591,-105.6435349
113,CO,"Eagle, CO",97255,92359.92,10137,19603,23.4,26.11,50.49,105.3,39.6161124,-106.7172844
114,CO,"Denver, CO",99133,94143.4,112542,261452,28.020000000000003,21.66,50.32,105.3,39.7392364,-104.984862
115,CO,"Routt, CO",98371,93419.75,5414,9297,21.939999999999998,28.73,49.33,105.3,40.4514373,-106.9724072
116,CO,"Ouray, CO",76727,72865.15,1434,1959,15.009999999999998,35.92,49.07,105.3,38.146044,-107.7414887
117,CO,"Larimer, CO",64258,61023.74,69378,110756,22.439999999999998,29.87,47.69,105.3,40.6810174,-105.4726907
118,CO,"Jefferson, CO",74822,71056.03,119643,195248,25.099999999999994,28.46,46.44,105.3,39.5699803,-105.2561919
119,CO,"Gilpin, CO",63971,60751.19,1699,2165,20.88000000000001,34.79,44.33,105.3,39.8586654,-105.5025219
120,CO,"La Plata, CO",66944,63574.55,12468,17747,25.039999999999992,30.93,44.03,105.3,37.2889732,-107.8539029
121,CO,"Hinsdale, CO",56524,53679.01,234,286,20.490000000000002,35.78,43.73,105.3,37.813681,-107.3304179
122,CO,"Arapahoe, CO",74267,70528.96,126400,192823,28.15,28.45,43.4,105.3,39.6416781,-104.3628567
123,CO,"Lake, CO",48942,46478.63,1485,2359,34.24999999999999,25.4,40.35,105.3,39.2056525,-106.342801
124,CO,"Grand, CO",62267,59132.95,3317,4752,31.939999999999998,27.98,40.08,105.3,40.0990074,-106.1366966
125,CO,"Archuleta, CO",52312,49679.01,3447,4115,27.07999999999999,33.24,39.68,105.3,37.1995993,-107.0842479
126,CO,"El Paso, CO",58627,55676.16,165308,178990,25.54,35.75,38.71,105.3,31.7865623,-106.441207
127,CO,"Chaffee, CO",60550,57502.37,5107,5670,32.47,32.0,35.53,105.3,38.7413025,-106.1825012
128,CO,"Teller, CO",61966,58847.1,7070,6828,27.759999999999998,36.75,35.49,105.3,38.889575,-105.1797307
129,CO,"Elbert, CO",70961,67389.36,7038,6408,28.35,37.5,34.15,105.3,39.3138822,-104.0868973
130,CO,"Custer, CO",51271,48690.41,1562,1328,25.819999999999993,40.09,34.09,105.3,38.1072962,-105.3543375
131,CO,"San Juan, CO",58067,55144.35,159,169,35.040000000000006,31.49,33.47,105.3,37.7633081,-107.6495508
132,CO,"Park, CO",57127,54251.66,5636,4770,28.97,38.47,32.56,105.3,39.1089299,-105.7561639
133,CO,"Garfield, CO",67123,63744.54,12260,12675,37.14999999999999,30.9,31.95,105.3,39.5462048,-107.8776144
134,CO,"Jackson, CO",62823,59660.97,387,339,32.84,35.8,31.36,105.3,42.2465036,-84.4016963
135,CO,"Montezuma, CO",50960,48395.06,5715,5454,40.300000000000004,30.55,29.15,105.3,37.3476546,-108.6260849
136,CO,"Weld, CO",56553,53706.55,66553,56295,39.78999999999999,32.62,27.59,105.3,40.5632344,-104.4835287
137,CO,"Mesa, CO",52121,49497.63,37051,29111,37.73,34.87,27.4,105.3,39.0589084,-108.565996
138,CO,"Dolores, CO",39481,37493.83,511,411,41.42,32.47,26.11,105.3,37.7524811,-108.4596087
139,CO,"Rio Grande, CO",57350,54463.44,2460,2000,42.129999999999995,31.92,25.95,105.3,37.5668223,-106.3832155
140,CO,"Conejos, CO",45961,43647.67,1672,1364,43.239999999999995,31.26,25.5,105.3,37.1851939,-106.1655431
141,CO,"Phillips, CO",50382,47846.15,896,714,42.589999999999996,31.95,25.46,105.3,40.5888329,-102.3701723
142,CO,"Adams, CO",53183,50506.17,100864,83000,44.260000000000005,30.58,25.16,105.3,39.8714085,-104.2701374
143,CO,"Rio Blanco, CO",54745,51989.55,1553,1064,39.03,36.18,24.79,105.3,39.9847294,-108.1807779
144,CO,"Montrose, CO",50789,48232.67,9722,7443,43.36,32.08,24.56,105.3,38.4375391,-108.2403855
145,CO,"Alamosa, CO",44507,42266.86,3365,2385,40.980000000000004,34.54,24.48,105.3,37.5780995,-105.7890452
146,CO,"Costilla, CO",43239,41062.68,973,663,41.07000000000001,35.05,23.88,105.3,37.2367948,-105.4182008
147,CO,"Huerfano, CO",48801,46344.73,2221,1243,34.32,42.11,23.57,105.3,37.7013983,-105.0218531
148,CO,"Cheyenne, CO",76057,72228.87,584,316,33.18,43.36,23.46,105.3,38.8307233,-102.6177692
149,CO,"Pueblo, CO",46927,44565.05,43486,26386,39.33,37.76,22.91,105.3,38.2544472,-104.609141
150,CO,"Saguache, CO",43959,41746.44,1572,1103,45.6,31.97,22.43,105.3,38.0945348,-106.3563372
151,CO,"Baca, CO",52905,50242.17,896,577,43.97,34.08,21.95,105.3,37.3147687,-102.5770885
152,CO,"Delta, CO",46042,43724.6,7126,4913,46.75,31.52,21.73,105.3,38.8368777,-107.8568294
153,CO,"Moffat, CO",49227,46749.29,2664,1895,48.349999999999994,30.18,21.47,105.3,40.6083135,-108.252345
154,CO,"Kiowa, CO",75006,71230.77,416,193,33.370000000000005,45.51,21.12,105.3,38.4411214,-102.7628476
155,CO,"Washington, CO",48270,45840.46,1337,712,39.53999999999999,39.45,21.01,105.3,39.9017011,-103.1521676
156,CO,"Yuma, CO",48898,46436.85,2385,1380,43.71000000000001,35.66,20.63,105.3,32.6926588,-114.627615
157,CO,"Logan, CO",48330,45897.44,5321,3269,45.86000000000001,33.54,20.6,105.3,40.7250975,-103.1221379
158,CO,"Sedgwick, CO",51705,49102.56,674,325,36.81,42.63,20.56,105.3,40.8698595,-102.3777262
159,CO,"Otero, CO",42752,40600.19,4505,2508,42.540000000000006,36.91,20.55,105.3,37.8872079,-103.7415268
160,CO,"Las Animas, CO",44731,42479.58,4264,2092,39.260000000000005,40.75,19.99,105.3,37.3096626,-104.0591427
161,CO,"Prowers, CO",46073,43754.04,2859,1447,44.57000000000001,36.8,18.63,105.3,37.9455797,-102.4130793
162,CO,"Fremont, CO",41017,38952.52,11995,6900,49.370000000000005,32.14,18.49,105.3,38.4692006,-105.4328622
163,CO,"Kit Carson, CO",52253,49622.98,1920,866,43.31,39.07,17.62,105.3,39.3080613,-102.62075
164,CO,"Morgan, CO",52069,49448.24,5763,3203,51.67999999999999,31.06,17.26,105.3,40.2407621,-103.8225695
165,CO,"Bent, CO",32716,31069.33,1046,663,60.980000000000004,23.88,15.14,105.3,37.9421152,-103.0964287
166,CO,"Lincoln, CO",37623,35729.34,943,531,64.91,22.45,12.64,105.3,38.9208296,-103.4885462
167,CO,"Crowley, CO",24314,23090.22,1206,360,62.12,29.17,8.71,105.3,38.3394806,-103.8263042
168,MD,"Howard, MD",86380,69661.29,42538,136792,17.840000000000003,19.49,62.67,124.0,39.2305289,-76.9166241
169,MD,"Montgomery, MD",92740,74790.32,135305,427967,22.019999999999996,18.73,59.25,124.0,39.1406267,-77.2075612
170,MD,"Anne Arundel, MD",76059,61337.9,109282,170888,29.5,27.5,43.0,124.0,38.9722583,-76.573454
171,MD,"Frederick, MD",68704,55406.45,47320,72798,31.229999999999997,27.09,41.68,124.0,39.415779,-77.4127562
172,MD,"Baltimore, MD",69561,56097.58,153352,229013,33.629999999999995,26.62,39.75,124.0,39.2908816,-76.610759
173,MD,"Talbot, MD",84695,68302.42,7939,11134,31.970000000000006,28.32,39.71,124.0,38.7542065,-76.1919824
174,MD,"Carroll, MD",69397,55965.32,32150,43310,35.61999999999999,27.43,36.95,124.0,39.5685399,-77.026707
175,MD,"Harford, MD",66633,53736.29,53237,65126,32.95,30.16,36.89,124.0,39.5055311,-76.32862
176,MD,"Queen Anne's, MD",75811,61137.9,9920,13053,35.779999999999994,27.73,36.49,124.0,39.0273331,-76.0616856
177,MD,"Kent, MD",67648,54554.84,3031,5050,41.93,21.78,36.29,124.0,39.2587546,-76.1038454
178,MD,"Prince George's, MD",54916,44287.1,170366,213156,38.120000000000005,27.49,34.39,124.0,38.803929,-76.8518695
179,MD,"Calvert, MD",70690,57008.06,19592,21621,34.81,30.99,34.2,124.0,39.7003884,-75.9824455
180,MD,"St. Mary's, MD",65762,53033.87,20907,24107,40.16000000000001,27.79,32.05,124.0,38.18707,-76.4344
181,MD,"Charles, MD",63939,51563.71,35321,32618,37.530000000000015,32.48,29.99,124.0,38.6392028,-76.898554
182,MD,"Worcester, MD",63811,51460.48,12522,11804,38.59,31.61,29.8,124.0,38.2231182,-75.3319465
183,MD,"Wicomico, MD",46893,37816.94,17351,18258,45.39,26.61,28.0,124.0,38.3888688,-75.635738
184,MD,"Cecil, MD",55293,44591.13,21084,18035,45.19000000000001,29.54,25.27,124.0,39.5729428,-75.9381806
185,MD,"Garrett, MD",53008,42748.39,5164,5056,52.53999999999999,23.98,23.48,124.0,39.544087,-79.2496976
186,MD,"Washington, MD",52897,42658.87,31459,23637,47.84,29.78,22.38,124.0,-11.49212,-69.71002
187,MD,"Dorchester, MD",54075,43608.87,6646,4595,51.379999999999995,28.75,19.87,124.0,38.614536,-76.93911883913027
188,MD,"Allegany, MD",47347,38183.06,14915,9635,50.72,29.94,19.34,124.0,39.675167,-78.910641
189,MD,"Caroline, MD",53549,43184.68,5925,4307,54.96,26.08,18.96,124.0,38.8550631,-75.8247398
190,MD,"Somerset, MD",37395,30157.26,5263,2703,53.550000000000004,30.69,15.76,124.0,38.9666168,-77.0969786
191,NY,"New York, NY",195543,131945.34,167960,777483,24.389999999999993,13.43,62.18,148.2,40.7127281,-74.0060152
192,NY,"Tompkins, NY",51377,34667.34,13743,31848,24.019999999999996,22.9,53.08,148.2,42.118333,-75.249444
193,NY,"Westchester, NY",119705,80772.6,133318,333530,30.390000000000008,19.88,49.73,148.2,40.839059,-73.840716
194,NY,"Nassau, NY",99597,67204.45,215448,441749,30.46,22.8,46.74,148.2,42.5159145,-73.6101159
195,NY,"Albany, NY",70947,47872.47,55356,89318,29.460000000000008,26.99,43.55,148.2,42.6511674,-73.754968
196,NY,"Saratoga, NY",75651,51046.56,45232,69240,30.550000000000004,27.44,42.01,148.2,43.0529612,-73.6417024
197,NY,"Rockland, NY",69173,46675.44,50306,85250,33.419999999999995,24.71,41.87,148.2,41.9453663,-74.9129403
198,NY,"Putnam, NY",78754,53140.35,18213,28953,33.39,25.72,40.89,148.2,43.746793,-73.397255
199,NY,"Monroe, NY",60046,40516.87,147063,201890,32.21000000000001,28.57,39.22,148.2,41.3304767,-74.1866348
200,NY,"Kings, NY",61851,41734.82,340514,691506,42.03999999999999,19.12,38.84,148.2,43.1509069,-73.8542895
201,NY,"Suffolk, NY",81309,54864.37,275781,385916,36.0,26.67,37.33,148.2,40.865527650000004,-72.86465148571631
202,NY,"Dutchess, NY",67256,45381.92,58599,75216,35.230000000000004,28.36,36.41,148.2,41.7194303,-73.7516205
203,NY,"Onondaga, NY",60992,41155.2,93908,114310,34.17,29.69,36.14,148.2,42.9807929,-76.2233857
204,NY,"Ontario, NY",62051,41869.77,24286,27855,32.97,31.22,35.81,148.2,43.2208968,-77.2830421
205,NY,"Erie, NY",57625,38883.27,195018,227537,34.790000000000006,30.1,35.11,148.2,42.9801753,-78.80533515608626
206,NY,"Richmond, NY",65113,43935.9,79855,115246,41.260000000000005,24.04,34.7,148.2,42.7905911,-77.5319396
207,NY,"Rensselaer, NY",58126,39221.32,34854,37969,34.98,31.12,33.9,148.2,42.6425795,-73.742898
208,NY,"Columbia, NY",65426,44147.1,12790,15390,38.349999999999994,27.98,33.67,148.2,42.9277366,-75.0427129
209,NY,"Queens, NY",58646,39572.2,365079,549043,44.269999999999996,22.26,33.47,148.2,40.7135078,-73.8283132
210,NY,"Otsego, NY",53431,36053.31,11447,13363,38.04,28.59,33.37,148.2,42.734722,-74.958889
211,NY,"Ulster, NY",60557,40861.67,38102,43267,37.65,29.2,33.15,148.2,41.960556,-74.010833
212,NY,"Warren, NY",62392,42099.87,14570,15496,37.410000000000004,30.33,32.26,148.2,42.8473421,-74.9212172
213,NY,"Schenectady, NY",62484,42161.94,32689,34501,37.519999999999996,30.4,32.08,148.2,42.8142432,-73.9395687
214,NY,"Orange, NY",58883,39732.12,74591,75297,38.72,30.5,30.78,148.2,41.0542094,-73.9288425
215,NY,"Essex, NY",54109,36510.8,8271,8574,41.39,28.78,29.83,148.2,44.3093018,-73.3504048
216,NY,"Broome, NY",50657,34181.51,38828,36742,40.760000000000005,30.44,28.8,148.2,42.509167,-74.307222
217,NY,"Livingston, NY",52209,35228.74,13564,11718,40.599999999999994,31.87,27.53,148.2,42.1420336,-73.777905
218,NY,"Cortland, NY",48617,32804.99,9767,8059,40.480000000000004,32.61,26.91,148.2,41.2446453,-73.9259559
219,NY,"Oneida, NY",53172,35878.54,50112,42289,41.790000000000006,31.57,26.64,148.2,43.0943244,-75.6508149
220,NY,"Madison, NY",54766,36954.12,15039,12801,42.08000000000001,31.29,26.63,148.2,42.8977412,-75.512291
221,NY,"Sullivan, NY",53874,36352.23,14975,14158,45.349999999999994,28.09,26.56,148.2,43.0545116,-75.8468569
222,NY,"Tioga, NY",53919,36382.59,10348,9059,44.11,29.8,26.09,148.2,42.101423,-76.37699
223,NY,"Niagara, NY",53137,35854.93,50713,38652,40.790000000000006,33.6,25.61,148.2,41.31637245,-74.13026530279515
224,NY,"Steuben, NY",54238,36597.84,21144,16733,44.25,31.12,24.63,148.2,43.320182,-75.283127
225,NY,"Yates, NY",48934,33018.89,4531,4072,48.28,27.24,24.48,148.2,43.3394606,-78.388284
226,NY,"Clinton, NY",50625,34159.92,15075,13483,48.269999999999996,27.31,24.42,148.2,43.0484029,-75.3785034
227,NY,"Greene, NY",55805,37655.2,9087,8505,50.47,25.58,23.95,148.2,42.3292408,-75.7699147
228,NY,"Wayne, NY",53499,36099.19,21331,15166,42.92,33.36,23.72,148.2,42.4709046,-77.1055262
229,NY,"Schoharie, NY",52027,35105.94,6907,5279,45.56,30.86,23.58,148.2,42.6659088,-74.3095787
230,NY,"St. Lawrence, NY",45626,30786.77,20772,16890,47.459999999999994,28.98,23.56,148.2,44.1772711,-76.1677157
231,NY,"Chemung, NY",52360,35330.63,18810,13970,44.739999999999995,31.71,23.55,148.2,42.0084073,-76.623736
232,NY,"Schuyler, NY",49811,33610.66,4396,3062,43.58000000000001,33.26,23.16,148.2,43.096111,-75.098056
233,NY,"Chautauqua, NY",47642,32147.1,28420,20617,45.150000000000006,31.79,23.06,148.2,42.209633,-79.4663814
234,NY,"Allegany, NY",42569,28724.02,10006,6844,43.64999999999999,33.46,22.89,148.2,42.0900239,-78.4943858
235,NY,"Jefferson, NY",53130,35850.2,24088,15932,43.55000000000001,33.98,22.47,148.2,42.4811884,-74.6104276
236,NY,"Delaware, NY",48644,32823.21,9234,7261,49.75,28.13,22.12,148.2,41.761111,-75.002222
237,NY,"Cayuga, NY",51431,34703.78,18453,12220,44.849999999999994,33.18,21.97,148.2,42.9189555,-76.7263397
238,NY,"Genesee, NY",50662,34184.89,13512,9049,45.45,32.67,21.88,148.2,42.0470457,-78.2481994
239,NY,"Seneca, NY",47269,31895.41,7218,5267,49.41,29.25,21.34,148.2,42.8275905,-77.0685976
240,NY,"Herkimer, NY",51946,35051.28,14328,9238,46.120000000000005,32.76,21.12,148.2,43.0256259,-74.9859889
241,NY,"Franklin, NY",48658,32832.66,10503,7366,49.75000000000001,29.54,20.71,148.2,42.3406373,-75.1651689
242,NY,"Bronx, NY",46834,31601.89,236108,188933,54.31,25.38,20.31,148.2,40.8466508,-73.8785937
243,NY,"Washington, NY",49202,33199.73,12703,9031,51.480000000000004,28.36,20.16,148.2,41.786667,-73.681389
244,NY,"Oswego, NY",48574,32775.98,25259,16082,48.38000000000001,31.54,20.08,148.2,43.4547284,-76.5095967
245,NY,"Cattaraugus, NY",46775,31562.08,16143,10496,49.47,30.62,19.91,148.2,42.329229,-78.86809
246,NY,"Hamilton, NY",54556,36812.42,1098,692,48.629999999999995,31.51,19.86,148.2,42.8268798,-75.5444159
247,NY,"Chenango, NY",50568,34121.46,9987,6475,51.769999999999996,29.26,18.97,148.2,42.197622,-75.8979428
248,NY,"Montgomery, NY",48821,32942.65,11654,6379,47.260000000000005,34.08,18.66,148.2,41.5275938,-74.236816
249,NY,"Lewis, NY",54629,36861.67,5233,3370,53.17999999999999,28.48,18.34,148.2,44.275196,-73.565826
250,NY,"Fulton, NY",51558,34789.47,13103,7031,47.83,33.95,18.22,148.2,55.4370735,-2.6248492
251,NY,"Wyoming, NY",49062,33105.26,9511,5292,49.650000000000006,32.35,18.0,148.2,42.8264498,-78.0897329
252,NY,"Orleans, NY",46322,31256.41,9133,4832,52.86,30.83,16.31,148.2,44.1710943,-75.9480324
253,NC,"Orange, NC",74994,78363.64,17907,55545,19.529999999999994,19.62,60.85,95.7,35.1296112,-78.5222311
254,NC,"Wake, NC",71205,74404.39,180759,395000,21.29999999999999,24.71,53.99,95.7,35.7800445,-78.6666281
255,NC,"Durham, NC",60330,63040.75,49198,108453,28.1,22.44,49.46,95.7,35.996653,-78.9018053
256,NC,"Mecklenburg, NC",71836,75063.74,207420,338590,26.090000000000003,28.08,45.83,95.7,35.244022,-80.93627117001928
257,NC,"Chatham, NC",75624,79021.94,13828,23516,30.620000000000005,25.69,43.69,95.7,35.7187873,-79.1538601
258,NC,"Watauga, NC",46766,48867.29,8795,13965,30.360000000000007,26.91,42.73,95.7,35.183173,-83.382754
259,NC,"New Hanover, NC",57693,60285.27,49504,67230,26.67000000000001,31.1,42.23,95.7,34.2751052,-77.8818627
260,NC,"Buncombe, NC",57895,60496.34,52030,79322,31.459999999999994,27.15,41.39,95.7,35.563894000000005,-82.63299417705103
261,NC,"Moore, NC",60775,63505.75,22987,27871,29.340000000000003,31.94,38.72,95.7,35.3054614,-79.4761236
262,NC,"Dare, NC",68887,71982.24,9410,10558,27.46999999999999,34.18,38.35,95.7,35.6333866,-75.6869011
263,NC,"Guilford, NC",54651,57106.58,104962,130366,33.93,29.47,36.6,95.7,36.0768027,-79.8980907
264,NC,"Union, NC",63777,66642.63,45279,54397,34.03,29.97,36.0,95.7,36.333766,-77.0241271
265,NC,"Forsyth, NC",56378,58911.18,76354,86341,36.07,30.0,33.93,95.7,36.065713450000004,-80.3285990155299
266,NC,"Transylvania, NC",52252,54599.79,8467,8811,33.66000000000001,32.51,33.83,95.7,35.1982216,-82.7724889
267,NC,"Cabarrus, NC",53647,56057.47,44505,47123,34.82,31.66,33.52,95.7,35.2370876,-80.5417335
268,NC,"Polk, NC",59482,62154.65,5311,5265,34.33000000000001,32.98,32.69,95.7,35.2779217,-82.176176
269,NC,"Pitt, NC",53200,55590.39,36044,35349,35.19,32.72,32.09,95.7,35.6506962,-77.3662528
270,NC,"Henderson, NC",52634,54998.96,29607,27352,34.34,34.13,31.53,95.7,36.3295905,-78.3991638
271,NC,"Madison, NC",43064,44998.96,4142,4694,43.370000000000005,26.55,30.08,95.7,36.385422,-79.9594689
272,NC,"Iredell, NC",60791,63522.47,40843,36698,37.23,33.06,29.71,95.7,33.9332275,-78.5911234
273,NC,"Brunswick, NC",55361,57848.48,36485,32133,37.06,33.47,29.47,95.7,34.2867996,-78.7011356
274,NC,"Pender, NC",48665,50851.62,14059,12616,38.75,32.28,28.97,95.7,36.3104307,-77.592753
275,NC,"Carteret, NC",60741,63470.22,20144,15036,33.230000000000004,38.23,28.54,95.7,34.77588015,-76.87718718839085
276,NC,"Jackson, NC",43362,45310.34,8822,7968,40.089999999999996,31.48,28.43,95.7,36.3896747,-77.4214855
277,NC,"Haywood, NC",49639,51869.38,16024,12970,37.790000000000006,34.38,27.83,95.7,35.6201515,-79.0639047
278,NC,"Clay, NC",43300,45245.56,2889,2347,39.68,33.28,27.04,95.7,36.2426458,-78.5877789
279,NC,"Cumberland, NC",46992,49103.45,82099,53183,34.86,39.53,25.61,95.7,35.004886,-78.9672507
280,NC,"Alamance, NC",48118,50280.04,38224,28301,40.44,34.22,25.34,95.7,36.0351361,-79.4858549
281,NC,"Currituck, NC",57320,59895.51,6682,4913,40.43000000000001,34.33,25.24,95.7,36.4498773,-76.0154824
282,NC,"Craven, NC",54135,56567.4,25842,16899,36.900000000000006,38.15,24.95,95.7,35.6284724,-80.3317223
283,NC,"Davie, NC",57591,60178.68,10141,7397,42.410000000000004,33.3,24.29,95.7,35.9375154,-80.5464948
284,NC,"Johnston, NC",48950,51149.43,49507,32484,39.53,36.51,23.96,95.7,35.507622850000004,-78.31964840427275
285,NC,"Macon, NC",48875,51071.06,8699,6349,43.400000000000006,32.72,23.88,95.7,36.4387585,-78.0838809
286,NC,"Granville, NC",46504,48593.52,13343,10103,44.769999999999996,31.43,23.8,95.7,36.3210127,-78.6593963
287,NC,"Avery, NC",43022,44955.07,4165,3171,45.27000000000001,31.07,23.66,95.7,35.03740345,-80.75764294668527
288,NC,"Onslow, NC",50869,53154.65,42018,25116,36.980000000000004,39.44,23.58,95.7,34.7820429,-77.40051760278354
289,NC,"Pasquotank, NC",47034,49147.34,9199,6342,42.900000000000006,33.8,23.3,95.7,36.2673789,-76.3385487
290,NC,"Lincoln, NC",55368,57855.8,21310,14036,41.94,35.0,23.06,95.7,35.4866424,-81.2062724
291,NC,"Catawba, NC",53333,55729.36,36522,25387,43.769999999999996,33.17,23.06,95.7,35.7073558,-81.0756345
292,NC,"Mitchell, NC",43973,45948.8,3783,2464,44.0,33.91,22.09,95.7,36.0001181,-82.1349028
293,NC,"Harnett, NC",43484,45437.83,32498,19342,40.8,37.11,22.09,95.7,35.3454392,-78.7922429
294,NC,"Gaston, NC",48508,50687.57,51031,33981,44.83,33.12,22.05,95.7,36.5004281,-77.6449804
295,NC,"Cherokee, NC",40485,42304.08,7372,4805,44.60000000000001,33.54,21.86,95.7,35.4766377,-83.3189781
296,NC,"Chowan, NC",50460,52727.27,3144,2307,48.75,29.56,21.69,95.7,36.266545,-76.6677262
297,NC,"Pamlico, NC",53355,55752.35,3736,2152,41.089999999999996,37.38,21.53,95.7,35.0848861,-76.634929
298,NC,"Nash, NC",50714,52992.69,20428,13842,47.57,31.25,21.18,95.7,35.9792779,-77.84735049466983
299,NC,"Franklin, NC",44996,47017.76,16913,10046,43.22,35.62,21.16,95.7,35.1823171,-83.3815429
300,NC,"Alleghany, NC",45206,47237.2,2571,1768,49.05,30.19,20.76,95.7,36.5029951,-81.1340843
301,NC,"Beaufort, NC",54165,56598.75,12242,7113,43.65,35.64,20.71,95.7,34.7180601,-76.6591587
302,NC,"Swain, NC",49421,51641.59,3204,2018,46.58999999999999,32.77,20.64,95.7,35.45819,-83.466275
303,NC,"Lee, NC",49136,51343.78,15315,8483,42.519999999999996,36.99,20.49,95.7,35.4691746,-79.1547643
304,NC,"Yancey, NC",41892,43774.29,4174,2706,48.38000000000001,31.32,20.3,95.7,35.798002,-79.087763
305,NC,"Ashe, NC",44203,46189.13,7222,4124,44.87,35.09,20.04,95.7,36.4393554,-81.5076569
306,NC,"Wilson, NC",48642,50827.59,16108,11154,51.03999999999999,28.93,20.03,95.7,35.7212689,-77.9155395
307,NC,"Camden, NC",55457,57948.8,2702,1524,44.82,35.28,19.9,95.7,36.3284897,-76.1718764
308,NC,"Rowan, NC",46763,48864.16,32638,19334,46.66,33.5,19.84,95.7,34.5129458,-78.2711102
309,NC,"Wayne, NC",49881,52122.26,29159,16330,44.800000000000004,35.38,19.82,95.7,35.39845225,-77.97114538174846
310,NC,"Perquimans, NC",51577,53894.46,3688,1992,44.22,36.22,19.56,95.7,36.1739896,-76.4254832
311,NC,"Cleveland, NC",45544,47590.39,21579,13135,48.47,32.03,19.5,95.7,35.7331953,-80.6770111
312,NC,"Rutherford, NC",42376,44280.04,16253,9247,47.05,33.75,19.2,95.7,35.645118,-78.72077040530671
313,NC,"Davidson, NC",48086,50246.6,39917,22226,47.10000000000001,33.98,18.92,95.7,35.4992614,-80.8485218
314,NC,"McDowell, NC",42960,44890.28,11404,6109,47.28,34.33,18.39,95.7,35.6414327,-81.9862911
315,NC,"Hoke, NC",41652,43523.51,13977,6472,41.99,39.65,18.36,95.7,35.7334952,-76.8152226
316,NC,"Bladen, NC",47567,49704.28,8161,4344,47.7,34.13,18.17,95.7,34.6584482,-78.7266293
317,NC,"Surry, NC",46963,49073.15,16750,9103,49.269999999999996,32.87,17.86,95.7,35.49155,-76.85105
318,NC,"Richmond, NC",44562,46564.26,10603,5443,47.519999999999996,34.68,17.8,95.7,-31.413056,23.943611
319,NC,"Stanly, NC",46827,48931.03,16040,7679,45.540000000000006,36.83,17.63,95.7,35.3235477,-80.2391366
320,NC,"Vance, NC",44399,46393.94,9269,5288,51.760000000000005,30.72,17.52,95.7,36.3747423,-78.4140945
321,NC,"Burke, NC",44798,46810.87,22379,11037,49.32000000000001,33.94,16.74,95.7,35.74470235,-81.68730807981271
322,NC,"Montgomery, NC",46916,49024.03,5828,3108,53.099999999999994,30.59,16.31,95.7,35.3299572,-79.8979019
323,NC,"Edgecombe, NC",45069,47094.04,10494,5879,54.879999999999995,28.92,16.2,95.7,34.4629453,-77.5949717
324,NC,"Randolph, NC",45777,47833.86,32344,16071,51.44,32.44,16.12,95.7,35.6882029,-79.82817770798805
325,NC,"Wilkes, NC",46169,48243.47,16719,7888,50.05,33.94,16.01,95.7,36.1998247,-81.1341351
326,NC,"Hertford, NC",41973,43858.93,5579,2654,50.36,33.64,16.0,95.7,36.190158,-76.4660519
327,NC,"Caldwell, NC",43856,45826.54,19149,9369,51.78,32.38,15.84,95.7,36.189863,-79.0172325
328,NC,"Caswell, NC",42247,44145.25,5375,2609,51.61,32.58,15.81,95.7,36.4035101,-79.3357315
329,NC,"Person, NC",46879,48985.37,10328,4444,47.78,36.51,15.71,95.7,36.3967816,-78.9882995
330,NC,"Lenoir, NC",50363,52625.91,13195,6097,50.900000000000006,33.58,15.52,95.7,35.9140196,-81.5389849
331,NC,"Scotland, NC",42171,44065.83,7519,3665,52.7,31.8,15.5,95.7,34.8628902,-79.4903372
332,NC,"Warren, NC",38740,40480.67,4373,2224,54.519999999999996,30.15,15.33,95.7,36.3901694,-78.1052123
333,NC,"Rockingham, NC",45049,47073.15,22485,10019,50.61,34.17,15.22,95.7,34.9393201,-79.7739457
334,NC,"Northampton, NC",46742,48842.22,4089,2263,57.59,27.3,15.11,95.7,35.9507063,-78.4757235947192
335,NC,"Martin, NC",43176,45115.99,5460,2482,51.64,33.25,15.11,95.7,35.779404,-78.765962
336,NC,"Halifax, NC",44948,46967.61,9755,5291,58.26,27.06,14.68,95.7,36.3286329,-77.5897391
337,NC,"Duplin, NC",51968,54303.03,13070,5838,52.84,32.6,14.56,95.7,34.9464988,-77.9320171
338,NC,"Bertie, NC",48377,50550.68,3949,2074,57.86000000000001,27.63,14.51,95.7,36.0608505,-76.9747965
339,NC,"Sampson, NC",45841,47900.73,13394,6132,54.04,31.53,14.43,95.7,34.727756,-78.2018701
340,NC,"Alexander, NC",46513,48602.93,7863,3826,56.53,29.24,14.23,95.7,35.70247,-82.61882
341,NC,"Jones, NC",50245,52502.61,2316,1017,53.440000000000005,32.35,14.21,95.7,35.2898918,-76.689095
342,NC,"Robeson, NC",41780,43657.26,25935,11970,55.550000000000004,30.41,14.04,95.7,34.6485079,-79.0954942
343,NC,"Stokes, NC",46159,48233.02,10496,4503,55.48,31.15,13.37,95.7,35.7165488,-77.2646852
344,NC,"Graham, NC",43178,45118.08,2121,819,52.279999999999994,34.43,13.29,95.7,36.0690258,-79.4005756
345,NC,"Yadkin, NC",46172,48246.6,9893,3475,50.349999999999994,36.74,12.91,95.7,35.7212499,-80.3989449
346,NC,"Columbus, NC",44729,46738.77,13153,5068,53.64999999999999,33.46,12.89,95.7,35.2531698,-82.1970584
347,NC,"Washington, NC",46846,48950.89,2919,1058,51.739999999999995,35.42,12.84,95.7,35.5493702,-77.0535574
348,NC,"Gates, NC",50100,52351.1,3128,1045,50.25,37.29,12.46,95.7,36.5034867,-76.7691236
349,NC,"Anson, NC",47744,49889.24,5364,1952,58.52,30.41,11.07,95.7,34.9705848,-80.0958187
350,NC,"Tyrrell, NC",47379,49507.84,873,322,60.81999999999999,28.62,10.56,95.7,35.8217079,-76.2126146
351,NC,"Hyde, NC",49175,51384.54,1191,402,58.550000000000004,30.99,10.46,95.7,35.3935017,-76.1253302
352,NC,"Greene, NC",39564,41341.69,5121,1561,55.57,34.05,10.38,95.7,35.481724,-77.6728536
353,TN,"Williamson, TN",107698,121008.99,32995,91780,17.800000000000004,21.74,60.46,89.0,35.9184058,-86.8379528
354,TN,"Davidson, TN",82087,92232.58,119718,207439,31.659999999999997,25.01,43.33,89.0,36.5681234,-85.0224493
355,TN,"Knox, TN",59934,67341.57,88877,121308,32.79,28.42,38.79,89.0,35.9544426,-83.9258929
356,TN,"Wilson, TN",59229,66549.44,28170,33591,36.089999999999996,29.15,34.76,89.0,36.1466658,-86.3119998
357,TN,"Hamilton, TN",60089,67515.73,79086,85630,35.96,30.75,33.29,89.0,36.4987144,-82.2615242
358,TN,"Rutherford, TN",49411,55517.98,65484,66663,35.43,32.0,32.57,89.0,36.1275674,-88.9858988
359,TN,"Shelby, TN",59212,66530.34,180828,199289,38.26,29.37,32.37,89.0,35.03253545,-90.18993063159849
360,TN,"Washington, TN",52089,58526.97,24713,28719,39.92000000000001,27.79,32.29,89.0,35.53451,-84.90717
361,TN,"Montgomery, TN",48104,54049.44,46793,37475,33.839999999999996,36.74,29.42,89.0,35.4653518,-88.1564234
362,TN,"Sumner, TN",59105,66410.11,40548,36951,40.0,31.39,28.61,89.0,36.4496718,-86.4685413
363,TN,"Loudon, TN",60642,68137.08,11407,10663,43.58,29.16,27.26,89.0,35.7410117,-84.336174
364,TN,"Putnam, TN",47536,53411.24,12371,13517,49.39999999999999,24.18,26.42,89.0,36.1379872,-85.4553784
365,TN,"Madison, TN",51004,57307.87,18465,16995,45.879999999999995,28.18,25.94,89.0,36.2561646,-86.7138861
366,TN,"Blount, TN",52596,59096.63,27898,23328,45.94,29.44,24.62,89.0,35.6719722,-83.9314465
367,TN,"Sullivan, TN",50418,56649.44,33234,28220,46.67,28.84,24.49,89.0,36.4966673,-82.286903
368,TN,"Maury, TN",52041,58473.03,20728,15735,44.46000000000001,31.57,23.97,89.0,35.6285992,-87.0736684
369,TN,"Bradley, TN",46409,52144.94,22918,17189,45.19000000000001,31.32,23.49,89.0,35.2120247,-84.86980115097569
370,TN,"Anderson, TN",50901,57192.13,17231,12495,45.71,31.47,22.82,89.0,34.9939719,-85.9030336
371,TN,"Fayette, TN",68153,76576.4,9585,6764,45.64,31.87,22.49,89.0,35.1739357,-89.4175416
372,TN,"Coffee, TN",46299,52021.35,10504,8093,51.349999999999994,27.48,21.17,89.0,35.4906115,-86.069633
373,TN,"Franklin, TN",45975,51657.3,7272,5998,54.01,25.2,20.79,89.0,35.925206,-86.8689419
374,TN,"Cheatham, TN",54069,60751.69,7788,5854,52.230000000000004,27.27,20.5,89.0,36.2444954,-87.0967857
375,TN,"Robertson, TN",51097,57412.36,13511,9922,51.82,27.78,20.4,89.0,35.2656375,-88.7186641
376,TN,"Weakley, TN",45366,50973.03,5028,4279,56.82,23.33,19.85,89.0,35.2645241,-87.1886241
377,TN,"Moore, TN",48015,53949.44,1165,905,55.69999999999999,24.93,19.37,89.0,35.2835629,-86.3411514
378,TN,"Lincoln, TN",48683,54700.0,5800,4592,56.660000000000004,24.19,19.15,89.0,35.015087,-86.507493
379,TN,"Roane, TN",49972,56148.31,12990,7522,47.94999999999999,32.96,19.09,89.0,35.84857,-84.5225522
380,TN,"DeKalb, TN",47634,53521.35,3205,2716,58.73,22.34,18.93,89.0,35.9804643,-85.83965
381,TN,"Carroll, TN",40502,45507.87,4945,3622,55.650000000000006,25.6,18.75,89.0,35.9631851,-88.4487987
382,TN,"Dyer, TN",51559,57931.46,7865,4685,50.230000000000004,31.19,18.58,89.0,36.0667348,-88.9939549
383,TN,"Carter, TN",40739,45774.16,12101,7797,52.870000000000005,28.66,18.47,89.0,36.412891,-82.0804034
384,TN,"Sevier, TN",49012,55069.66,22143,12838,50.19,31.53,18.28,89.0,35.8047065,-83.5291901
385,TN,"Stewart, TN",48205,54162.92,2465,1768,56.31,25.44,18.25,89.0,36.3206104,-87.8414143
386,TN,"Bedford, TN",46083,51778.65,8017,5905,57.230000000000004,24.63,18.14,89.0,11.3493093,76.8011024
387,TN,"Hamblen, TN",45234,50824.72,11775,8018,55.39000000000001,26.54,18.07,89.0,36.2068067,-83.267995
388,TN,"Giles, TN",43321,48675.28,5083,3717,57.510000000000005,24.54,17.95,89.0,35.2178285,-87.0296239
389,TN,"Gibson, TN",46449,52189.89,9801,5984,52.730000000000004,29.35,17.92,89.0,35.8753458,-88.846728
390,TN,"Henry, TN",49852,56013.48,5325,4134,59.45,22.83,17.72,89.0,36.2039488,-88.4197705
391,TN,"Jefferson, TN",44330,49808.99,11769,6790,52.03,30.42,17.55,89.0,35.8945097,-85.7110932
392,TN,"Cumberland, TN",44295,49769.66,14019,8035,51.96000000000001,30.54,17.5,89.0,35.953805,-84.9748195
393,TN,"Claiborne, TN",42542,47800.0,5948,3975,56.56000000000001,26.04,17.4,89.0,36.4673161,-83.6786377
394,TN,"Smith, TN",48602,54608.99,3541,2385,57.36,25.48,17.16,89.0,35.8092329,-88.539775
395,TN,"Dickson, TN",50218,56424.72,10450,6366,54.690000000000005,28.16,17.15,89.0,36.0766534,-87.3870096
396,TN,"McMinn, TN",43715,49117.98,11227,6430,53.36999999999999,29.65,16.98,89.0,35.444223,-84.624875
397,TN,"Tipton, TN",49219,55302.25,14194,7015,48.720000000000006,34.32,16.96,89.0,35.4136951,-89.8198058
398,TN,"Hawkins, TN",41436,46557.3,11433,6886,55.550000000000004,27.74,16.71,89.0,36.5457745,-82.6546277
399,TN,"Fentress, TN",40402,45395.51,3026,2199,60.459999999999994,22.9,16.64,89.0,36.41508,-85.041848
400,TN,"Rhea, TN",42174,47386.52,6238,3731,55.620000000000005,27.77,16.61,89.0,35.6123863,-84.9347264
401,TN,"Hardin, TN",45053,50621.35,4521,3064,59.150000000000006,24.35,16.5,89.0,35.2998,-88.12364
402,TN,"Unicoi, TN",43044,48364.04,4275,2218,51.92999999999999,31.65,16.42,89.0,36.1953862,-82.3495818
403,TN,"Cannon, TN",44419,49908.99,2255,1681,61.760000000000005,21.91,16.33,89.0,35.8044159,-86.0512075
404,TN,"Marshall, TN",47446,53310.11,7233,3783,52.730000000000004,31.04,16.23,89.0,36.5728768,-82.66099
405,TN,"Greene, TN",41796,46961.8,12887,8034,58.17999999999999,25.76,16.06,89.0,36.1698443,-82.8766356
406,TN,"Chester, TN",41568,46705.62,3046,1798,57.06,27.0,15.94,89.0,35.4265564,-88.6009817
407,TN,"Obion, TN",48493,54486.52,4986,3313,61.199999999999996,23.31,15.49,89.0,36.2589567,-89.1917353
408,TN,"Monroe, TN",42276,47501.12,9677,5082,55.459999999999994,29.2,15.34,89.0,36.4370083,-85.2424622
409,TN,"Crockett, TN",49729,55875.28,2726,1493,57.08,27.73,15.19,89.0,36.2981215,-89.0428435
410,TN,"Humphreys, TN",44127,49580.9,2944,1922,62.66,22.59,14.75,89.0,36.018558,-87.7721645
411,TN,"Sequatchie, TN",43709,49111.24,2968,1604,58.22,27.12,14.66,89.0,35.1156326,-85.5935781
412,TN,"Decatur, TN",48912,54957.3,2300,1212,58.51,27.17,14.32,89.0,35.5147939,-84.7902223
413,TN,"Lawrence, TN",41310,46415.73,7805,4092,59.7,26.44,13.86,89.0,35.6486823,-88.7906131
414,TN,"Warren, TN",41296,46400.0,6607,3837,62.82000000000001,23.52,13.66,89.0,35.2384198,-89.442852
415,TN,"Henderson, TN",44357,49839.33,5025,2649,60.66,25.76,13.58,89.0,35.4392435,-88.6414411
416,TN,"Pickett, TN",45308,50907.87,1012,521,60.22,26.26,13.52,89.0,36.5559316,-84.79626109128259
417,TN,"Houston, TN",39128,43964.04,1384,778,62.77,23.83,13.4,89.0,35.2414681,-87.9178052
418,TN,"Grundy, TN",39349,44212.36,2098,1262,64.38000000000001,22.24,13.38,89.0,35.3697894,-85.7106606
419,TN,"McNairy, TN",38354,43094.38,4719,2392,61.15,25.78,13.07,89.0,35.3120246,-88.6272722
420,TN,"Clay, TN",40338,45323.6,1103,722,67.16000000000001,19.85,12.99,89.0,36.5125924,-85.5323062
421,TN,"Campbell, TN",42471,47720.22,7866,3720,59.67,27.38,12.95,89.0,36.0820069,-85.5360883
422,TN,"Grainger, TN",41569,46706.74,4393,2172,61.160000000000004,25.99,12.85,89.0,36.2810821,-83.5107018
423,TN,"Benton, TN",40963,46025.84,2785,1510,63.489999999999995,23.67,12.84,89.0,35.1742411,-84.6535468
424,TN,"White, TN",40770,45808.99,5326,2432,59.620000000000005,27.72,12.66,89.0,35.23964235,-89.50814834105114
425,TN,"Polk, TN",39180,44022.47,4345,1570,52.419999999999995,34.95,12.63,89.0,36.3081218,-89.1178448
426,TN,"Overton, TN",40959,46021.35,3346,1961,66.14999999999999,21.34,12.51,89.0,35.2470321,-89.9956448
427,TN,"Marion, TN",46559,52313.48,5790,2556,59.25,28.27,12.48,89.0,36.5403579,-83.927144
428,TN,"Johnson, TN",37936,42624.72,3738,1612,60.410000000000004,27.66,11.93,89.0,35.6722958,-84.5624337
429,TN,"Jackson, TN",38953,43767.42,1980,1024,65.84,22.52,11.64,89.0,35.6144446,-88.8177418
430,TN,"Trousdale, TN",36454,40959.55,2301,903,58.879999999999995,29.53,11.59,89.0,36.3975473,-86.4022145
431,TN,"Haywood, TN",41503,46632.58,3104,1385,62.96,25.61,11.43,89.0,35.5675653,-89.287824
432,TN,"Bledsoe, TN",33675,37837.08,2654,1342,65.99,22.59,11.42,89.0,36.5155994,-86.2655447
433,TN,"Morgan, TN",39005,43825.84,3778,1778,64.44,24.18,11.38,89.0,36.1372409,-84.629496
434,TN,"Cocke, TN",40384,45375.28,5837,2946,66.32000000000001,22.38,11.3,89.0,35.9467093,-83.103978
435,TN,"Union, TN",40349,45335.96,3363,1541,64.81,24.13,11.06,89.0,35.584799,-89.11951
436,TN,"Hancock, TN",34135,38353.93,1348,505,60.84,28.49,10.67,89.0,36.2836689,-88.3111549
437,TN,"Wayne, TN",35726,40141.57,3165,1330,64.18,25.22,10.6,89.0,35.2499093,-87.8084373
438,TN,"Hardeman, TN",35485,39870.79,4476,1913,64.91,24.58,10.51,89.0,35.1743058,-88.9963359
439,TN,"Meigs, TN",39452,44328.09,2595,914,60.730000000000004,29.04,10.23,89.0,35.51017,-84.8109718
440,TN,"Lewis, TN",41476,46602.25,2467,867,61.080000000000005,28.8,10.12,89.0,35.5291497,-87.4950257
441,TN,"Lake, TN",29534,33184.27,1134,570,69.74,20.14,10.12,89.0,36.234606299999996,-89.65944914088351
442,TN,"Lauderdale, TN",39733,44643.82,4239,1696,66.36,24.03,9.61,89.0,35.7579793,-89.6175055
443,TN,"Hickman, TN",41689,46841.57,4366,1668,65.88,24.69,9.43,89.0,36.1439464,-85.9405429
444,TN,"Scott, TN",37333,41947.19,3646,1386,66.66999999999999,24.15,9.18,89.0,35.6547942,-84.7510532
445,TN,"Macon, TN",39669,44571.91,3854,1453,67.12,23.88,9.0,89.0,35.1531441,-89.4897984
446,TN,"Perry, TN",38404,43150.56,1308,480,67.78999999999999,23.56,8.65,89.0,35.6337989,-87.8498777
447,TN,"Van Buren, TN",36669,41201.12,1042,369,67.14,24.27,8.59,89.0,35.1314754,-89.0753417
448,CA,"Marin, CA",164118,115413.5,44228,114604,16.620000000000005,23.22,60.16,142.2,38.0409144,-122.6199638
449,CA,"San Francisco, CA",160749,113044.3,126806,409341,23.04,18.2,58.76,142.2,37.7790262,-122.419906
450,CA,"Santa Clara, CA",138724,97555.56,285038,716934,25.269999999999996,21.26,53.47,142.2,37.3541132,-121.955174
451,CA,"San Mateo, CA",160485,112858.65,129775,287882,24.46,23.47,52.07,142.2,37.5629997,-122.3253265
452,CA,"Alameda, CA",99746,70144.87,273930,575727,28.17,23.16,48.67,142.2,37.7652076,-122.2416355
453,CA,"Contra Costa, CA",99312,69839.66,233105,344244,27.33,29.34,43.33,142.2,37.9034806,-121.9175345
454,CA,"Yolo, CA",64468,45336.15,34987,54823,30.18,27.2,42.62,142.2,38.7318481,-121.8077431
455,CA,"Santa Cruz, CA",85554,60164.56,55648,75435,27.320000000000007,30.85,41.83,142.2,36.9743626,-122.0294673
456,CA,"Orange, CA",81034,56985.94,601509,900407,31.189999999999998,27.56,41.25,142.2,33.7872568,-117.850308
457,CA,"Placer, CA",76849,54042.9,101434,112522,22.47,36.76,40.77,142.2,39.1012064,-120.7650606
458,CA,"San Diego, CA",72637,51080.87,687870,893648,30.169999999999995,30.37,39.46,142.2,32.7174202,-117.1627728
459,CA,"Alpine, CA",72734,51149.09,247,336,33.37,28.23,38.4,142.2,39.4362764,-123.5833462
460,CA,"Nevada, CA",68973,48504.22,29630,28748,23.71,38.72,37.57,142.2,39.3540335,-120.8089843
461,CA,"Napa, CA",90608,63718.71,30193,36459,31.989999999999995,30.81,37.2,142.2,38.2971367,-122.2855293
462,CA,"Sonoma, CA",81006,56966.24,123775,130834,29.1,34.47,36.43,142.2,38.280772999999996,-122.43973276175743
463,CA,"San Luis Obispo, CA",66617,46847.4,68058,68535,28.090000000000003,35.83,36.08,142.2,35.2827525,-120.659615
464,CA,"El Dorado, CA",78525,55221.52,52465,49019,27.04,37.72,35.24,142.2,38.7574137,-120.5276129
465,CA,"Santa Barbara, CA",73995,52035.86,82690,96547,35.08,29.95,34.97,142.2,34.4221319,-119.702667
466,CA,"Ventura, CA",73375,51599.86,184874,194239,33.85000000000001,32.26,33.89,142.2,34.3435092,-119.29560423163717
467,CA,"Los Angeles, CA",74141,52138.54,1788625,2317682,40.57,25.89,33.54,142.2,34.0536909,-118.242766
468,CA,"Mono, CA",64164,45122.36,3416,3208,33.779999999999994,34.15,32.07,142.2,37.9533927,-118.9398758
469,CA,"Sacramento, CA",61829,43480.31,358539,328051,34.17999999999999,34.37,31.45,142.2,38.5810606,-121.493895
470,CA,"Humboldt, CA",53607,37698.31,34197,28770,32.38,36.72,30.9,142.2,40.5997415,-123.8997734
471,CA,"Butte, CA",54694,38462.73,56717,41383,32.87,38.81,28.32,142.2,39.6519275,-121.5858444
472,CA,"Solano, CA",65448,46025.32,116836,83141,34.92,38.02,27.06,142.2,38.2218938,-121.9163555
473,CA,"Mariposa, CA",61343,43138.54,5633,3659,31.66,41.43,26.91,142.2,37.4849377,-119.966284
474,CA,"Inyo, CA",62090,43663.85,4375,3466,40.349999999999994,33.28,26.37,142.2,36.5595325,-117.4074712
475,CA,"Monterey, CA",63449,44619.55,73827,72592,47.05,26.7,26.25,142.2,36.600256,-121.8946388
476,CA,"Plumas, CA",57193,40220.11,6703,3566,29.400000000000002,46.08,24.52,142.2,39.9430988,-120.8059521
477,CA,"Mendocino, CA",56047,39414.21,22570,14877,39.620000000000005,36.39,23.99,142.2,39.3076744,-123.7994591
478,CA,"Riverside, CA",51180,35991.56,521489,369140,43.91,32.84,23.25,142.2,33.9533546,-117.3961623
479,CA,"Tuolumne, CA",52306,36783.4,17793,9252,34.7,42.96,22.34,142.2,38.056944,-119.9919351
480,CA,"Shasta, CA",54972,38658.23,55117,28097,34.46000000000001,43.41,22.13,142.2,40.5993165,-122.4919571
481,CA,"Siskiyou, CA",52368,36827.0,13374,7028,35.839999999999996,42.06,22.1,142.2,41.5007223,-122.54435414752092
482,CA,"Fresno, CA",51422,36161.74,199363,134611,45.34,32.63,22.03,142.2,36.7394421,-119.7848307
483,CA,"San Bernardino, CA",49493,34805.2,450717,292237,45.7,32.94,21.36,142.2,34.108285,-117.2897065
484,CA,"San Benito, CA",68868,48430.38,14375,8041,43.900000000000006,35.98,20.12,142.2,36.5096854,-121.0818602
485,CA,"Sutter, CA",53017,37283.4,23194,12636,43.199999999999996,36.77,20.03,142.2,38.9509675,-121.697088
486,CA,"Calaveras, CA",57726,40594.94,14445,7011,39.339999999999996,40.84,19.82,142.2,38.2558181,-120.4981492
487,CA,"Sierra, CA",47135,33146.98,1067,446,34.28,46.35,19.37,142.2,39.5849065,-120.5305731
488,CA,"Trinity, CA",36906,25953.59,3631,1868,43.400000000000006,37.37,19.23,142.2,40.6053256,-123.171268
489,CA,"San Joaquin, CA",57783,40635.02,154692,91108,48.30000000000001,32.54,19.16,142.2,36.6066162,-120.1890447
490,CA,"Modoc, CA",54301,38186.36,2327,1220,47.11,34.7,18.19,142.2,41.5450487,-120.7435998
491,CA,"Amador, CA",49752,34987.34,13285,5573,38.76,43.14,18.1,142.2,38.449089,-120.5911018
492,CA,"Yuba, CA",48984,34447.26,19752,8815,41.629999999999995,40.36,18.01,142.2,39.2839755,-121.3556818
493,CA,"Stanislaus, CA",52356,36818.57,111605,61312,50.08,32.22,17.7,142.2,38.1382537,-120.3701959
494,CA,"Tehama, CA",48042,33784.81,17610,7698,42.71,39.86,17.43,142.2,40.0271015,-122.123322
495,CA,"Kern, CA",45961,32321.38,166879,93120,52.19,30.69,17.12,142.2,35.3145701,-118.753822
496,CA,"Lake, CA",46918,32994.37,18305,7770,43.9,39.38,16.72,142.2,39.0505411,-122.7776556
497,CA,"Del Norte, CA",43951,30907.88,6451,3042,51.97,32.64,15.39,142.2,41.7261767,-123.91328
498,CA,"Imperial, CA",47653,33511.25,32353,16993,55.330000000000005,29.29,15.38,142.2,32.8475529,-115.569439
499,CA,"Madera, CA",45757,32177.92,32737,14912,51.370000000000005,33.41,15.22,142.2,36.9622745,-120.0594685
500,CA,"Kings, CA",43176,30362.87,30567,14068,52.279999999999994,32.68,15.04,142.2,36.0784807,-119.7956342
501,CA,"Colusa, CA",54511,38334.04,4043,2041,55.65,29.47,14.88,142.2,39.2141019,-122.009234
502,CA,"Tulare, CA",47986,33745.43,84614,39847,54.61,30.86,14.53,142.2,36.2077351,-119.3473421
503,CA,"Glenn, CA",50626,35601.97,5877,2610,53.019999999999996,32.53,14.45,142.2,39.5912766,-122.3778662
504,CA,"Merced, CA",46580,32756.68,48961,22873,55.739999999999995,30.17,14.09,142.2,37.3029568,-120.4843269
505,CA,"Lassen, CA",39394,27703.23,8024,2825,51.410000000000004,35.94,12.65,142.2,40.7685579,-120.730998
506,IN,"Hamilton, IN",85814,94717.44,49452,128224,17.729999999999997,22.9,59.37,90.6,41.542567500000004,-84.92345517507763
507,IN,"Boone, IN",84985,93802.43,11142,22516,24.019999999999996,25.15,50.83,90.6,40.049808,-86.4799847
508,IN,"Monroe, IN",52392,57827.81,21967,38698,28.999999999999993,25.71,45.29,90.6,40.7450468,-84.9369111
509,IN,"Tippecanoe, IN",45950,50717.44,27031,42667,35.1,25.17,39.73,90.6,41.2089325,-86.114999
510,IN,"Hendricks, IN",59804,66008.83,31743,43277,32.60999999999999,28.51,38.88,90.6,39.6081023,-86.1483203
511,IN,"Bartholomew, IN",61136,67479.03,14190,19252,41.03,25.02,33.95,90.6,39.1982811,-85.95651090987184
512,IN,"Warrick, IN",64880,71611.48,14092,14248,34.4,32.62,32.98,90.6,38.0906065,-87.2758933
513,IN,"Johnson, IN",56808,62701.99,29702,33695,39.190000000000005,28.49,32.32,90.6,38.277823,-87.745861
514,IN,"Marion, IN",65625,72433.77,170615,202829,40.81000000000001,27.04,32.15,90.6,40.5583739,-85.6591442
515,IN,"Hancock, IN",58095,64122.52,15966,16845,38.06,30.14,31.8,90.6,39.8127873,-85.7874738
516,IN,"St. Joseph, IN",56122,61944.81,51108,54863,40.16,28.86,30.98,90.6,38.066154,-87.6469646
517,IN,"Floyd, IN",62578,69070.64,16417,16206,39.34,30.53,30.13,90.6,39.742228,-86.758824
518,IN,"Brown, IN",55345,61087.2,3563,3374,39.67,30.99,29.34,90.6,39.1682855,-86.2297004
519,IN,"Allen, IN",54681,60354.3,79271,70881,38.720000000000006,32.35,28.93,90.6,41.11698905,-85.18251386353103
520,IN,"Porter, IN",61250,67604.86,35724,33501,40.81,30.55,28.64,90.6,41.6156584,-87.0741735
521,IN,"Vanderburgh, IN",55099,60815.67,39661,33513,41.25,31.84,26.91,90.6,38.0461185,-87.5806553
522,IN,"Tipton, IN",51881,57263.8,2713,2813,49.08,25.0,25.92,90.6,40.2822598,-86.041098
523,IN,"Dearborn, IN",55782,61569.54,9257,8880,47.49,26.8,25.71,90.6,39.1340338,-84.9820997
524,IN,"Dubois, IN",60954,67278.15,7556,7375,48.29,26.17,25.54,90.6,38.445332,-86.8044393
525,IN,"Vigo, IN",45767,50515.45,22338,17268,42.91,32.2,24.89,90.6,39.2872608,-87.5372453
526,IN,"Delaware, IN",45325,50027.59,22050,17690,44.09,31.02,24.89,90.6,39.1478313,-85.2071816
527,IN,"Kosciusko, IN",55625,61396.25,14980,12882,47.370000000000005,28.3,24.33,90.6,41.2458506,-85.850232
528,IN,"Lake, IN",53181,58698.68,100571,76066,46.379999999999995,30.53,23.09,90.6,18.2086891,76.68006823252102
529,IN,"Posey, IN",59105,65237.31,5936,4143,44.019999999999996,32.97,23.01,90.6,39.462611,-87.158621
530,IN,"Steuben, IN",52244,57664.46,7096,5381,47.919999999999995,29.62,22.46,90.6,41.7159732,-85.1098457
531,IN,"Whitley, IN",53969,59568.43,7682,5290,45.019999999999996,32.56,22.42,90.6,41.1238216,-85.5035187
532,IN,"Howard, IN",47031,51910.6,18449,12073,46.63000000000001,32.26,21.11,90.6,39.9161499,-87.3755703
533,IN,"Huntington, IN",49571,54714.13,7305,5254,49.8,29.2,21.0,90.6,40.8831011,-85.497476
534,IN,"Montgomery, IN",48866,53935.98,7631,5449,50.120000000000005,29.1,20.78,90.6,38.6625493,-87.0461181
535,IN,"Clark, IN",51887,57270.42,27597,16873,45.39,33.89,20.72,90.6,41.6113484,-87.3945392
536,IN,"Franklin, IN",54451,60100.44,4233,3186,52.400000000000006,27.16,20.44,90.6,39.4806056,-86.0549863
537,IN,"Wayne, IN",48785,53846.58,14331,9003,48.64000000000001,31.54,19.82,90.6,39.8344891,-84.8205697466054
538,IN,"Marshall, IN",51474,56814.57,8365,6105,53.230000000000004,27.04,19.73,90.6,39.8480969,-87.1877901
539,IN,"Ripley, IN",49158,54258.28,5540,3785,51.739999999999995,28.67,19.59,90.6,41.1005964,-86.6602895
540,IN,"Elkhart, IN",55007,60714.13,35218,25479,53.43000000000001,27.02,19.55,90.6,41.6819935,-85.9766671
541,IN,"Decatur, IN",53393,58932.67,4750,3495,53.910000000000004,26.55,19.54,90.6,40.830603,-84.9291329
542,IN,"Union, IN",47359,52272.63,1421,978,52.97,27.86,19.17,90.6,38.4653254,-87.4347408
543,IN,"LaPorte, IN",49508,54644.59,23774,14761,50.13999999999999,30.76,19.1,90.6,41.6331101,-86.7396196
544,IN,"Shelby, IN",52065,57466.89,8019,5884,55.14999999999999,25.87,18.98,90.6,41.1953134,-87.3478099
545,IN,"Wabash, IN",51300,56622.52,5979,4057,53.22,27.87,18.91,90.6,40.797821,-85.8205411
546,IN,"Lawrence, IN",51160,56467.99,9342,6050,52.22,29.0,18.78,90.6,39.8386516,-86.0252612
547,IN,"Wells, IN",49953,55135.76,6316,3560,48.08,33.2,18.72,90.6,40.7322633,-86.111104
548,IN,"Gibson, IN",53562,59119.21,7431,4258,48.879999999999995,32.5,18.62,90.6,41.6053135,-87.4614297
549,IN,"Morgan, IN",51539,56886.31,14223,9052,52.11999999999999,29.26,18.62,90.6,33.7591338,74.2513132
550,IN,"Warren, IN",52196,57611.48,1986,1093,47.89,33.61,18.5,90.6,40.6828226,-85.4271953
551,IN,"Harrison, IN",51770,57141.28,8435,5221,51.85000000000001,29.74,18.41,90.6,39.5299973,-87.4261678
552,IN,"Benton, IN",53602,59163.36,1855,1077,49.94,31.67,18.39,90.6,41.509216,-85.7611016
553,IN,"Grant, IN",46892,51757.17,13752,8018,50.44,31.31,18.25,90.6,40.5114735,-85.6540606
554,IN,"Madison, IN",45755,50502.21,27825,16476,50.93000000000001,30.82,18.25,90.6,38.7358933,-85.3799577
555,IN,"DeKalb, IN",51961,57352.1,8506,5262,52.900000000000006,29.1,18.0,90.6,41.3991456,-85.001244
556,IN,"Jackson, IN",49451,54581.68,9134,5369,51.72999999999999,30.4,17.87,90.6,39.0650538,-85.441353
557,IN,"Spencer, IN",52615,58073.95,4485,2507,51.629999999999995,31.03,17.34,90.6,39.2867117,-86.7625058
558,IN,"Jefferson, IN",50734,55997.79,6819,3889,52.25,30.41,17.34,90.6,40.2794807,-86.5900034
559,IN,"Putnam, IN",45681,50420.53,7570,4221,52.85000000000001,30.27,16.88,90.6,39.6666195,-86.8374032
560,IN,"White, IN",51422,56757.17,5396,2786,51.06,32.28,16.66,90.6,40.7422434,-86.8713913
561,IN,"Clay, IN",44878,49534.22,5837,3015,51.43,32.03,16.54,90.6,39.3864958,-87.1025862
562,IN,"Knox, IN",53525,59078.37,8756,4048,47.900000000000006,35.63,16.47,90.6,41.2958751,-86.6250139
563,IN,"Randolph, IN",49116,54211.92,5210,2817,53.32000000000001,30.3,16.38,90.6,40.2661553,-84.9758004
564,IN,"Henry, IN",46146,50933.77,10339,5621,53.519999999999996,30.11,16.37,90.6,39.7858778,-85.587475
565,IN,"Perry, IN",42358,46752.76,3875,2179,55.57999999999999,28.43,15.99,90.6,37.965409,-87.667838
566,IN,"Vermillion, IN",45487,50206.4,3652,1713,50.849999999999994,33.46,15.69,90.6,39.864792,-87.458075
567,IN,"Pike, IN",47977,52954.75,2396,1351,57.09,27.44,15.47,90.6,38.4159433,-87.214144
568,IN,"Noble, IN",48060,53046.36,9098,4919,56.06999999999999,28.51,15.42,90.6,40.4694904,-84.8260749
569,IN,"Carroll, IN",51293,56614.79,4470,2170,53.010000000000005,31.63,15.36,90.6,40.5802239,-86.5693296
570,IN,"Rush, IN",54210,59834.44,3099,1767,58.09,26.69,15.22,90.6,39.6220357,-85.4731911
571,IN,"Jasper, IN",55018,60726.27,6754,3432,55.16,29.73,15.11,90.6,38.3914228,-86.9308719
572,IN,"Adams, IN",47209,52107.06,5952,3186,57.11999999999999,27.93,14.95,90.6,39.4822701,-86.3555484
573,IN,"Greene, IN",50131,55332.23,7540,3386,52.21000000000001,32.98,14.81,90.6,39.0227107,-86.9958489
574,IN,"Fayette, IN",47588,52525.39,3908,2386,61.00999999999999,24.21,14.78,90.6,39.9311533,-86.3972193
575,IN,"Owen, IN",48681,53731.79,4223,2205,57.239999999999995,28.09,14.67,90.6,38.4581201,-85.5419048
576,IN,"Clinton, IN",45305,50005.52,5750,3102,58.230000000000004,27.13,14.64,90.6,39.6569817,-87.3980741
577,IN,"Fulton, IN",49205,54310.15,4495,2010,52.95000000000001,32.51,14.54,90.6,40.9472635,-86.2627772
578,IN,"Ohio, IN",51321,56645.7,1400,634,53.760000000000005,31.83,14.41,90.6,38.9480496,-84.9581728
579,IN,"Fountain, IN",48583,53623.62,3517,1619,55.60999999999999,30.4,13.99,90.6,40.2222596,-87.3352894
580,IN,"Miami, IN",40179,44347.68,7683,3417,55.35999999999999,30.9,13.74,90.6,40.6144919,-86.1059443
581,IN,"Blackford, IN",44325,48923.84,2534,1157,56.3,30.0,13.7,90.6,40.4692826,-85.3305529
582,IN,"Scott, IN",44678,49313.47,4194,2176,61.39,25.42,13.19,90.6,41.7336618,-85.5569295
583,IN,"Cass, IN",47854,52818.98,8160,3371,55.54999999999999,31.46,12.99,90.6,39.0869874,-87.2786267
584,IN,"Orange, IN",43422,47927.15,3633,1765,60.449999999999996,26.62,12.93,90.6,39.5844584,-85.2994493
585,IN,"Pulaski, IN",54133,59749.45,2713,1119,55.88999999999999,31.23,12.88,90.6,40.9753183,-86.6583433
586,IN,"Daviess, IN",53008,58507.73,5697,2645,59.61,27.58,12.81,90.6,38.6776099,-87.0813484
587,IN,"Jennings, IN",49519,54656.73,5791,2413,56.650000000000006,30.6,12.75,90.6,38.766738,-85.768143
588,IN,"Sullivan, IN",43091,47561.81,4835,1895,55.0,32.33,12.67,90.6,39.0952593,-87.4077845
589,IN,"Martin, IN",49082,54174.39,2246,901,55.86,31.5,12.64,90.6,38.1244879,-87.6736335
590,IN,"Jay, IN",49300,54415.01,3921,1730,59.08,28.39,12.53,90.6,40.4388765,-84.9784163
591,IN,"Parke, IN",48252,53258.28,3870,1484,55.02000000000001,32.51,12.47,90.6,39.7686321,-87.2158436
592,IN,"Washington, IN",47858,52823.4,5883,2406,57.38,30.25,12.37,90.6,38.6592152,-87.172789
593,IN,"Newton, IN",51905,57290.29,2875,1190,59.21000000000001,28.85,11.94,90.6,40.9672665,-85.8213761
594,IN,"Starke, IN",42083,46449.23,4713,1832,58.69,29.75,11.56,90.6,41.2753164,-86.6457565
595,IN,"Crawford, IN",41854,46196.47,1866,778,64.46000000000001,25.08,10.46,90.6,38.8458849,-86.397212
596,IN,"Switzerland, IN",42481,46888.52,1670,687,67.8,22.81,9.39,90.6,38.8249258,-85.0373975
597,MA,"Middlesex, MA",98523,72980.0,204256,644709,24.86,18.08,57.06,135.0,42.3311676,-71.20153881973107
598,MA,"Norfolk, MA",104059,77080.74,102950,270144,24.650000000000006,20.79,54.56,135.0,42.1195426,-71.3250564
599,MA,"Hampshire, MA",60717,44975.56,23551,48952,27.549999999999997,23.53,48.92,135.0,-41.26134,145.781111
600,MA,"Suffolk, MA",98644,73069.63,101261,266193,34.17,18.14,47.69,135.0,42.3544455,-70.9788771
601,MA,"Nantucket, MA",101902,75482.96,2687,4212,22.200000000000003,30.3,47.5,135.0,41.2727997,-70.0951867
602,MA,"Barnstable, MA",83191,61622.96,46834,74952,26.860000000000007,28.13,45.01,135.0,41.7016936,-70.3036163
603,MA,"Dukes, MA",86341,63956.3,3764,5857,27.680000000000007,28.29,44.03,135.0,52.1552134,-3.0322442
604,MA,"Essex, MA",78093,57846.67,134259,222503,34.82,24.53,40.65,135.0,42.6320389,-70.7828255
605,MA,"Franklin, MA",63366,46937.78,14517,20456,34.55,27.17,38.28,135.0,42.0834313,-71.396725
606,MA,"Plymouth, MA",79817,59123.7,98653,138366,34.699999999999996,27.18,38.12,135.0,41.9583799,-70.6673851
607,MA,"Worcester, MA",65793,48735.56,153708,212111,36.09,26.85,37.06,135.0,42.2625621,-71.8018877
608,MA,"Berkshire, MA",65050,48185.19,25677,32735,36.989999999999995,27.7,35.31,135.0,42.507397,-73.038778
609,MA,"Bristol, MA",64924,48091.85,105772,115519,44.10999999999999,26.71,29.18,135.0,51.4538022,-2.5972985
610,MA,"Hampden, MA",61522,45571.85,90148,87433,44.25,28.3,27.45,135.0,42.0641195,-72.413682
611,MI,"Washtenaw, MI",68688,75233.3,56190,131273,19.0,24.28,56.72,91.3,42.2582044,-83.8440853
612,MI,"Oakland, MI",80962,88676.89,249498,427086,24.020000000000003,28.02,47.96,91.3,42.755112,-83.156612
613,MI,"Leelanau, MI",78457,85933.19,4808,7858,24.74000000000001,28.57,46.69,91.3,44.8878795,-85.8119919
614,MI,"Kalamazoo, MI",58524,64100.77,52423,66147,28.729999999999997,31.51,39.76,91.3,42.291707,-85.5872286
615,MI,"Ingham, MI",49608,54335.16,57281,69765,28.54999999999999,32.21,39.24,91.3,42.5860505,-84.3800841
616,MI,"Grand Traverse, MI",60388,66142.39,23130,25740,27.059999999999988,34.52,38.42,91.3,44.6409162,-85.5801336
617,MI,"Kent, MI",61852,67745.89,131499,159668,32.81999999999999,30.34,36.84,91.3,43.0024013,-85.5502718
618,MI,"Livingston, MI",65883,72161.01,44356,49198,30.57,32.92,36.51,91.3,42.5924563,-83.9147925
619,MI,"Keweenaw, MI",59593,65271.63,513,619,33.8,30.0,36.2,91.3,47.3876058,-88.0742387
620,MI,"Ottawa, MI",56076,61419.5,56492,63605,33.769999999999996,31.15,35.08,91.3,42.9547143,-85.9827867
621,MI,"Emmet, MI",66826,73193.87,8453,8416,30.349999999999994,34.9,34.75,91.3,45.5064041,-84.8567966
622,MI,"Midland, MI",62055,67968.24,17944,20410,34.69,30.56,34.75,91.3,43.6155825,-84.2472117
623,MI,"Marquette, MI",47870,52431.54,14342,15114,33.83,32.22,33.95,91.3,46.5434914,-87.396433
624,MI,"Houghton, MI",43809,47983.57,6044,7098,37.769999999999996,28.62,33.61,91.3,47.121872,-88.569012
625,MI,"Benzie, MI",54684,59894.85,4301,4345,35.39,32.14,32.47,91.3,44.6408868,-85.9928452
626,MI,"Charlevoix, MI",62505,68461.12,6473,6274,34.23,33.4,32.37,91.3,45.317649,-85.258348
627,MI,"Clinton, MI",54719,59933.19,19773,17498,31.629999999999995,36.27,32.1,91.3,42.0719867,-83.9716096
628,MI,"Antrim, MI",55759,61072.29,5719,5191,37.85,32.58,29.57,91.3,44.9947369,-85.1133189
629,MI,"Isabella, MI",45657,50007.67,11972,11551,39.83,30.62,29.55,91.3,43.6306545,-84.8468516
630,MI,"Eaton, MI",50743,55578.31,29894,22547,32.18000000000001,38.66,29.16,91.3,42.5935964,-84.8443666
631,MI,"Berrien, MI",59656,65340.64,37108,29707,38.03,34.42,27.55,91.3,41.9838614,-86.3985714
632,MI,"Macomb, MI",54258,59428.26,216116,159835,39.03,35.05,25.92,91.3,42.70087,-82.95909
633,MI,"Otsego, MI",49320,54019.72,6282,4502,38.74,35.69,25.57,91.3,42.4605904,-85.696406
634,MI,"Wayne, MI",50610,55432.64,387477,299012,42.06999999999999,32.7,25.23,91.3,42.2814269,-83.3863215
635,MI,"Dickinson, MI",55335,60607.89,6922,4555,38.489999999999995,37.1,24.41,91.3,45.9874631,-87.8864905
636,MI,"Mackinac, MI",53230,58302.3,2730,2019,43.66,32.39,23.95,91.3,46.085237,-85.0336698
637,MI,"Allegan, MI",53375,58461.12,24564,18782,45.64,30.81,23.55,91.3,42.5291989,-85.8553031
638,MI,"Barry, MI",52951,57996.71,14157,9858,43.95,33.04,23.01,91.3,42.5910739,-85.3242417
639,MI,"Mecosta, MI",44177,48386.64,8809,6302,45.040000000000006,32.04,22.92,91.3,43.6375503,-85.3168199
640,MI,"Chippewa, MI",42943,47035.05,9500,5913,41.03999999999999,36.34,22.62,91.3,46.3111149,-84.6428564
641,MI,"Jackson, MI",47503,52029.57,39868,24870,41.370000000000005,36.11,22.52,91.3,42.2465036,-84.4016963
642,MI,"Manistee, MI",46489,50918.95,6430,4134,43.050000000000004,34.66,22.29,91.3,44.244447,-86.324253
643,MI,"Saginaw, MI",49274,53969.33,46807,29135,42.46999999999999,35.46,22.07,91.3,43.4200387,-83.9490365
644,MI,"Mason, MI",48733,53376.78,7222,4675,43.94,34.03,22.03,91.3,42.5797113,-84.4422845
645,MI,"Cheboygan, MI",48078,52659.36,6373,4271,45.60000000000001,32.57,21.83,91.3,45.646956,-84.47448
646,MI,"Genesee, MI",49399,54106.24,105106,60164,40.989999999999995,37.53,21.48,91.3,43.1125262,-83.6177333
647,MI,"Calhoun, MI",47789,52342.83,30628,19586,44.99,33.55,21.46,91.3,42.2461339,-85.0229223
648,MI,"Lenawee, MI",46929,51400.88,22455,14423,46.150000000000006,32.79,21.06,91.3,41.8735258,-84.0624323
649,MI,"Monroe, MI",53509,58607.89,38475,22341,42.7,36.25,21.05,91.3,41.9145037,-83.3968252
650,MI,"Van Buren, MI",48770,53417.31,17966,10828,44.56999999999999,34.59,20.84,91.3,42.22032,-83.48382
651,MI,"Cass, MI",56042,61382.26,12945,7665,44.33999999999999,34.96,20.7,91.3,41.9090169,-85.9970051
652,MI,"Gogebic, MI",48705,53346.11,4488,2250,40.559999999999995,39.59,19.85,91.3,46.403433,-89.6626791
653,MI,"Muskegon, MI",46701,51151.15,45341,23532,42.230000000000004,38.03,19.74,91.3,43.2341813,-86.2483921
654,MI,"Wexford, MI",44697,48956.19,8138,4583,45.27000000000001,35.01,19.72,91.3,44.468617,-85.757916
655,MI,"Bay, MI",50396,55198.25,27270,14722,43.89,36.44,19.67,91.3,43.6957567,-83.9402747
656,MI,"Oceana, MI",46015,50399.78,5779,3615,48.940000000000005,31.41,19.65,91.3,43.6200297,-86.277073
657,MI,"Luce, MI",43526,47673.6,1685,946,45.57,34.86,19.57,91.3,46.4824144,-85.5556156
658,MI,"Alger, MI",42171,46189.49,1778,1352,55.339999999999996,25.37,19.29,91.3,46.4047895,-86.5280993
659,MI,"Delta, MI",46524,50957.28,10142,5079,42.35000000000001,38.41,19.24,91.3,46.0236602,-86.8950252
660,MI,"Crawford, MI",44116,48319.82,4139,2010,41.47,39.4,19.13,91.3,44.6769346,-84.6237147
661,MI,"St. Clair, MI",52805,57836.8,43909,21650,42.16,38.74,19.1,91.3,42.8208653,-82.486024
662,MI,"Schoolcraft, MI",49103,53782.04,1809,1175,51.900000000000006,29.16,18.94,91.3,42.1142107,-85.6377776
663,MI,"Iron, MI",49653,54384.45,2622,1634,50.690000000000005,30.38,18.93,91.3,46.2178577,-88.5463241
664,MI,"Hillsdale, MI",42365,46401.97,9996,5942,49.220000000000006,31.85,18.93,91.3,41.9200472,-84.6305101
665,MI,"Presque Isle, MI",47138,51629.79,3476,1873,46.330000000000005,34.88,18.79,91.3,45.3375258,-83.9567881
666,MI,"Alcona, MI",49262,53956.19,2809,1580,48.849999999999994,32.74,18.41,91.3,44.7600127,-83.2977451
667,MI,"Lapeer, MI",52034,56992.33,23048,11489,44.97,36.72,18.31,91.3,43.0514161,-83.3188341
668,MI,"Alpena, MI",48428,53042.72,8460,3797,42.05,40.0,17.95,91.3,45.0616794,-83.4327528
669,MI,"Shiawassee, MI",47525,52053.67,18658,8558,43.489999999999995,38.74,17.77,91.3,42.9429488,-84.1458259
670,MI,"Menominee, MI",48873,53530.12,5743,3011,48.8,33.59,17.61,91.3,45.107671,-87.614491
671,MI,"Newaygo, MI",44597,48846.66,10521,5859,51.96,30.86,17.18,91.3,43.419743,-85.800051
672,MI,"Ionia, MI",40849,44741.51,15562,7468,47.510000000000005,35.47,17.02,91.3,42.9872547,-85.0711174
673,MI,"Gratiot, MI",43249,47370.21,9941,4664,48.269999999999996,35.21,16.52,91.3,43.2903117,-84.6098023
674,MI,"Roscommon, MI",44518,48760.13,7092,3102,46.56,37.18,16.26,91.3,44.49835,-84.591968
675,MI,"St. Joseph, MI",46199,50601.31,14050,6563,49.63,34.33,16.04,91.3,42.1095808,-86.4799538
676,MI,"Huron, MI",55774,61088.72,7457,3683,51.62,32.39,15.99,91.3,42.137196,-83.363243
677,MI,"Missaukee, MI",43609,47764.51,3557,1662,50.47000000000001,33.76,15.77,91.3,44.336979,-85.1070535
678,MI,"Iosco, MI",46918,51388.83,7134,3027,48.17,36.39,15.44,91.3,42.554704,-84.086164
679,MI,"Ontonagon, MI",47563,52095.29,1598,733,51.5,33.25,15.25,91.3,46.871053,-89.31403
680,MI,"Baraga, MI",41772,45752.46,2111,940,50.80000000000001,34.04,15.16,91.3,46.778543,-88.489019
681,MI,"Osceola, MI",45167,49470.97,5240,2467,53.11000000000001,31.88,15.01,91.3,43.9654579,-85.3310847
682,MI,"Branch, MI",45325,49644.03,9926,4514,52.02000000000001,32.98,15.0,91.3,41.916753,-85.0649374
683,MI,"Sanilac, MI",47144,51636.36,9676,4348,52.22999999999999,32.96,14.81,91.3,43.4150687,-82.8234745
684,MI,"Montmorency, MI",43331,47460.02,2398,1093,52.86000000000001,32.38,14.76,91.3,45.0192008,-84.1322903
685,MI,"Montcalm, MI",40592,44460.02,15586,6452,50.43,35.06,14.51,91.3,43.3055418,-85.112198
686,MI,"Kalkaska, MI",43609,47764.51,4298,1844,52.17999999999999,33.46,14.36,91.3,44.734173,-85.175887
687,MI,"Gladwin, MI",44068,48267.25,6451,2703,51.57000000000001,34.13,14.3,91.3,43.980855,-84.486401
688,MI,"Lake, MI",38989,42704.27,2886,1239,54.959999999999994,31.51,13.53,91.3,43.9699997,-85.7884997
689,MI,"Tuscola, MI",44908,49187.29,12746,5116,52.980000000000004,33.55,13.47,91.3,43.4776781,-83.3951071
690,MI,"Arenac, MI",47470,51993.43,4097,1466,51.03,36.07,12.9,91.3,44.0608193,-83.8718694
691,MI,"Ogemaw, MI",42781,46857.61,5899,1936,50.209999999999994,37.49,12.3,91.3,44.3364914,-84.125549
692,MI,"Clare, MI",40710,44589.27,7923,2732,52.699999999999996,35.17,12.13,91.3,43.81947,-84.768628
693,MI,"Oscoda, MI",39929,43733.84,2092,742,54.12,33.87,12.01,91.3,44.4202933,-83.330801
694,UT,"Summit, UT",183972,185830.3,6446,15670,20.800000000000004,23.08,56.12,99.0,37.8011751,-112.9363332
695,UT,"Wasatch, UT",71360,72080.81,6207,8700,25.189999999999998,31.15,43.66,99.0,40.3348338,-111.1186992
696,UT,"Utah, UT",50661,51172.73,115689,127557,21.57,37.3,41.13,99.0,40.177058,-111.69107185434031
697,UT,"Cache, UT",47269,47746.46,22386,24690,26.630000000000003,34.89,38.48,99.0,41.7042978,-111.7451159
698,UT,"Morgan, UT",63256,63894.95,2630,2570,22.33,39.28,38.39,99.0,41.0360566,-111.6774417
699,UT,"Davis, UT",54820,55373.74,75283,78583,25.269999999999996,36.56,38.17,99.0,41.0263758,-112.1197426
700,UT,"Salt Lake, UT",62547,63178.79,237252,265529,30.83,32.64,36.53,99.0,40.6632297,-111.9103124
701,UT,"Grand, UT",69832,70537.37,2576,2188,33.25,36.09,30.66,99.0,38.9634637,-109.6619899
702,UT,"Kane, UT",49842,50345.45,2066,1663,33.41,36.89,29.7,99.0,37.2439691,-112.0048393
703,UT,"Washington, UT",47162,47638.38,47254,32727,28.66,42.15,29.19,99.0,37.1305373,-113.5082867
704,UT,"Iron, UT",38834,39226.26,12374,8627,29.720000000000002,41.41,28.87,99.0,37.8546136,-113.2867347
705,UT,"Beaver, UT",46960,47434.34,1492,999,35.650000000000006,38.54,25.81,99.0,38.2765305,-112.640278
706,UT,"Garfield, UT",50209,50716.16,1312,884,36.97,37.66,25.37,99.0,37.8018067,-111.5853156
707,UT,"Weber, UT",49857,50360.61,59079,39873,37.71,37.19,25.1,99.0,41.2728039,-111.8860648
708,UT,"Wayne, UT",52647,53178.79,848,438,29.42,46.54,24.04,99.0,38.3079634,-111.1243088
709,UT,"Box Elder, UT",45456,45915.15,12701,7754,37.480000000000004,38.82,23.7,99.0,41.3586056,-113.2112072
710,UT,"Tooele, UT",46131,46596.97,15055,9373,39.87,37.06,23.07,99.0,40.5307776,-112.29828
711,UT,"Millard, UT",44281,44728.28,2763,1772,42.739999999999995,34.89,22.37,99.0,39.0364951,-113.0861444
712,UT,"Rich, UT",43280,43717.17,638,310,32.56999999999999,45.38,22.05,99.0,41.661286,-111.2123631
713,UT,"Piute, UT",49233,49730.3,539,287,37.8,40.59,21.61,99.0,38.310801,-112.1012191
714,UT,"Sevier, UT",41983,42407.07,5242,2815,40.18,38.92,20.9,99.0,38.7312956,-111.7866483
715,UT,"Sanpete, UT",39139,39534.34,7205,3777,39.67,39.58,20.75,99.0,39.3606305,-111.5767825
716,UT,"San Juan, UT",34038,34381.82,3316,1762,44.76,36.07,19.17,99.0,37.5859438,-109.7852018
717,UT,"Juab, UT",48060,48545.45,2347,1224,45.39,35.89,18.72,99.0,39.6949628,-112.8342117
718,UT,"Carbon, UT",45120,45575.76,6102,2223,37.230000000000004,46.01,16.76,99.0,39.6023917,-110.6505023
719,UT,"Uintah, UT",35128,35482.83,7119,3404,49.64000000000001,34.07,16.29,99.0,41.1441153,-111.9232863
720,UT,"Emery, UT",40871,41283.84,3081,1002,35.699999999999996,48.52,15.78,99.0,38.9235316,-111.2481373
721,UT,"Daggett, UT",51672,52193.94,148,56,46.45,38.85,14.7,99.0,40.915567,-109.4798174
722,UT,"Duchesne, UT",42903,43336.36,4362,1613,49.17,37.11,13.72,99.0,40.1632913,-110.4029329
723,KS,"Johnson, KS",84535,97728.32,105469,227214,17.830000000000005,26.05,56.12,86.5,38.8837933,-94.8389141
724,KS,"Douglas, KS",51703,59772.25,18119,36324,23.199999999999996,25.56,51.24,86.5,38.8838392,-95.2874559
725,KS,"Riley, KS",47764,55218.5,12244,17762,20.230000000000004,32.55,47.22,86.5,39.298885,-96.830844
726,KS,"Ellis, KS",53348,61673.99,5628,6749,30.310000000000002,31.69,38.0,86.5,38.915304000000006,-99.31725312947998
727,KS,"Pottawatomie, KS",59324,68582.66,4715,5290,34.86,30.7,34.44,86.5,39.3928203,-96.3414279
728,KS,"Leavenworth, KS",49330,57028.9,17116,18541,35.519999999999996,30.95,33.53,86.5,39.345184,-94.921703
729,KS,"Hodgeman, KS",67659,78218.5,487,430,30.740000000000002,36.78,32.48,86.5,38.0875979,-99.900952
730,KS,"Harvey, KS",49642,57389.6,8147,7262,32.03999999999999,35.93,32.03,86.5,38.0352315,-97.4486267
731,KS,"Sedgwick, KS",57713,66720.23,107441,105229,36.54,32.06,31.4,86.5,37.9166785,-97.4225411
732,KS,"Shawnee, KS",54066,62504.05,35807,37806,38.97999999999999,29.68,31.34,86.5,39.0416718,-94.7202376
733,KS,"Miami, KS",56719,65571.1,7441,7161,36.46000000000001,32.38,31.16,86.5,38.5620514,-94.8557402
734,KS,"Butler, KS",51643,59702.89,15152,13406,35.150000000000006,34.41,30.44,86.5,37.77924,-96.8456342
735,KS,"Clark, KS",59045,68260.12,568,436,29.93,39.64,30.43,86.5,37.2045719,-99.8133765
736,KS,"Pratt, KS",58092,67158.38,2258,1782,33.14,37.37,29.49,86.5,37.6439071,-98.7375911
737,KS,"Crawford, KS",45046,52076.3,7695,6942,37.83,32.68,29.49,86.5,37.503889,-94.8652466
738,KS,"Wallace, KS",61727,71360.69,368,322,36.93,33.64,29.43,86.5,38.9073846,-101.7565099
739,KS,"McPherson, KS",57951,66995.38,6898,5615,35.75,35.42,28.83,86.5,38.3708415,-97.6642087
740,KS,"Marion, KS",49005,56653.18,2757,2304,38.05999999999999,33.74,28.2,86.5,38.3473241,-97.0195946
741,KS,"Republic, KS",49342,57042.77,1230,941,34.959999999999994,36.85,28.19,86.5,39.8266503,-97.6580834
742,KS,"Stafford, KS",52643,60858.96,1046,789,35.14,36.97,27.89,86.5,38.0350094,-98.718816
743,KS,"Clay, KS",50592,58487.86,1741,1576,41.85000000000001,30.52,27.63,86.5,39.3615169,-97.1718432
744,KS,"Saline, KS",56258,65038.15,12983,10056,37.629999999999995,35.15,27.22,86.5,38.7704462,-97.6669832
745,KS,"Chase, KS",64717,74817.34,684,494,35.379999999999995,37.52,27.1,86.5,38.2928083,-96.6152916
746,KS,"Nemaha, KS",60858,70356.07,1983,1782,43.22999999999999,29.9,26.87,86.5,39.7880532,-96.0157844
747,KS,"Lyon, KS",46177,53383.82,5942,5349,43.32,29.83,26.85,86.5,38.4573987,-96.1683124
748,KS,"Greeley, KS",93667,108285.55,242,192,39.72,33.61,26.67,86.5,38.3666861,-95.1269156
749,KS,"Morris, KS",52926,61186.13,1244,1079,43.05,30.5,26.45,86.5,38.6908906,-96.6707526
750,KS,"Graham, KS",62383,72119.08,570,466,41.53,32.17,26.3,86.5,39.34062,-99.8980624
751,KS,"Mitchell, KS",71245,82364.16,1600,1063,34.69,39.24,26.07,86.5,39.3863019,-98.2112629
752,KS,"Cheyenne, KS",65154,75322.54,704,494,36.92,37.07,26.01,86.5,39.1766771,-98.6389607
753,KS,"Lincoln, KS",56308,65095.95,874,545,32.879999999999995,41.34,25.78,86.5,39.0408395,-98.1447743
754,KS,"Thomas, KS",51579,59628.9,2261,1256,29.68,45.21,25.11,86.5,39.3529613,-101.0810229
755,KS,"Scott, KS",60794,70282.08,994,800,44.28999999999999,30.87,24.84,86.5,38.516138,-100.938986
756,KS,"Jefferson, KS",52892,61146.82,4066,3274,45.00999999999999,30.46,24.53,86.5,39.2405893,-95.391413
757,KS,"Dickinson, KS",49255,56942.2,4777,3168,39.09,36.62,24.29,86.5,38.8790615,-97.1893341
758,KS,"Rooks, KS",49795,57566.47,1267,857,39.81999999999999,35.9,24.28,86.5,39.3494127,-99.3216587
759,KS,"Wabaunsee, KS",58400,67514.45,1716,1144,39.93,36.04,24.03,86.5,39.146109,-96.346109
760,KS,"Cloud, KS",47195,54560.69,2251,1421,37.98,38.02,24.0,86.5,39.4850226,-97.6705137
761,KS,"Kiowa, KS",57085,65994.22,551,383,41.620000000000005,34.44,23.94,86.5,37.0172493,-98.4853539
762,KS,"Ottawa, KS",50373,58234.68,1489,975,39.53,36.54,23.93,86.5,38.6153828,-95.2678474
763,KS,"Sheridan, KS",56735,65589.6,645,433,40.739999999999995,35.46,23.8,86.5,39.52423,-100.519229
764,KS,"Kingman, KS",52283,60442.77,1886,1210,39.260000000000005,37.0,23.74,86.5,37.6458491,-98.1136734
765,KS,"Ellsworth, KS",47749,55201.16,1625,1067,40.15,36.13,23.72,86.5,38.7305648,-98.2281126
766,KS,"Coffey, KS",58867,68054.34,2152,1389,39.78,36.6,23.62,86.5,38.235413,-95.7498925
767,KS,"Russell, KS",53679,62056.65,2050,1152,34.49,41.94,23.57,86.5,38.895289,-98.859806
768,KS,"Sumner, KS",48658,56252.02,5427,3671,41.61,34.83,23.56,86.5,37.2435967,-97.4792142
769,KS,"Gray, KS",64859,74981.5,1216,881,44.17999999999999,32.37,23.45,86.5,37.7221896,-100.4373907
770,KS,"Wichita, KS",59792,69123.7,560,344,38.67,37.99,23.34,86.5,37.6922361,-97.3375448
771,KS,"Phillips, KS",64720,74820.81,1326,869,41.43000000000001,35.38,23.19,86.5,39.7961542,-99.346586
772,KS,"Lane, KS",75517,87302.89,422,244,37.760000000000005,39.44,22.8,86.5,38.4397392,-95.0821916
773,KS,"Geary, KS",52135,60271.68,8689,4099,28.910000000000004,48.3,22.79,86.5,38.9885445,-96.7619968
774,KS,"Cowley, KS",44888,51893.64,9021,5264,38.3,38.96,22.74,86.5,37.2413155,-96.8675685
775,KS,"Trego, KS",61938,71604.62,906,473,34.8,42.84,22.36,86.5,38.9289979,-99.9130572
776,KS,"Rush, KS",62819,72623.12,847,463,38.03,40.07,21.9,86.5,38.5047752,-99.309214
777,KS,"Ness, KS",66087,76401.16,776,437,39.35,38.8,21.85,86.5,38.4713429,-99.9586896
778,KS,"Sherman, KS",52785,61023.12,1642,891,38.08,40.14,21.78,86.5,39.3412127,-101.7492408
779,KS,"Rice, KS",47894,55368.79,2477,1348,38.230000000000004,40.0,21.77,86.5,38.3266261,-98.2007179
780,KS,"Rawlins, KS",80389,92935.26,826,404,34.05,44.29,21.66,86.5,39.7904797,-101.0994722
781,KS,"Labette, KS",49538,57269.36,5144,2963,40.82000000000001,37.55,21.63,86.5,37.1899712,-95.3103729
782,KS,"Barton, KS",53532,61886.71,6534,3800,42.040000000000006,36.65,21.31,86.5,38.4683432,-98.776234
783,KS,"Smith, KS",58450,67572.25,970,566,42.63,36.23,21.14,86.5,39.796749,-98.7935393
784,KS,"Meade, KS",74713,86373.41,1007,560,40.870000000000005,38.0,21.13,86.5,37.2855796,-100.340145
785,KS,"Osborne, KS",55815,64526.01,1018,533,38.8,40.17,21.03,86.5,39.438899,-98.694795
786,KS,"Washington, KS",54905,63473.99,1176,811,48.53999999999999,30.46,21.0,86.5,39.818059,-97.050861
787,KS,"Bourbon, KS",47885,55358.38,3605,2023,41.660000000000004,37.37,20.97,86.5,37.8485797,-94.8679591
788,KS,"Atchison, KS",44710,51687.86,3035,2115,49.37,29.84,20.79,86.5,39.5632392,-95.1199452
789,KS,"Barber, KS",56193,64963.01,1156,638,42.11,37.3,20.59,86.5,37.2113342,-98.7033263
790,KS,"Grant, KS",43192,49932.95,1355,900,48.510000000000005,30.94,20.55,86.5,37.553026,-101.3067042
791,KS,"Doniphan, KS",48727,56331.79,1901,1027,41.65,37.88,20.47,86.5,39.7831556,-95.1776492
792,KS,"Decatur, KS",58270,67364.16,757,426,43.8,35.96,20.24,86.5,39.7940527,-100.472769
793,KS,"Montgomery, KS",43689,50507.51,8456,4410,41.099999999999994,38.71,20.19,86.5,37.1983948,-95.7628341
794,KS,"Franklin, KS",49652,57401.16,5990,3464,45.09,34.79,20.12,86.5,38.5720008,-95.3184483
795,KS,"Greenwood, KS",49675,57427.75,1536,879,44.760000000000005,35.13,20.11,86.5,37.8709542,-96.2471338
796,KS,"Jackson, KS",50620,58520.23,2978,1780,46.28999999999999,33.62,20.09,86.5,39.4030917,-95.8159647
797,KS,"Edwards, KS",68555,79254.34,805,418,41.31,38.63,20.06,86.5,37.8684743,-99.3245584
798,KS,"Woodson, KS",47014,54351.45,795,468,45.910000000000004,34.05,20.04,86.5,37.8811369,-95.7517113
799,KS,"Neosho, KS",47902,55378.03,4272,2153,40.32,39.68,20.0,86.5,37.5566345,-95.33166
800,KS,"Reno, KS",47918,55396.53,17563,8605,39.3,40.74,19.96,86.5,37.930344,-98.1055753
801,KS,"Cherokee, KS",51492,59528.32,4886,2743,44.519999999999996,35.53,19.95,86.5,37.3459447,-94.8088659
802,KS,"Gove, KS",69011,79781.5,663,375,44.910000000000004,35.19,19.9,86.5,38.9030073,-100.5073968
803,KS,"Jewell, KS",60881,70382.66,770,429,44.41,35.7,19.89,86.5,39.671399,-98.153661
804,KS,"Norton, KS",51714,59784.97,1604,778,40.349999999999994,40.17,19.48,86.5,39.833895,-99.891511
805,KS,"Osage, KS",50353,58211.56,3557,2140,48.230000000000004,32.32,19.45,86.5,38.6736049,-95.7367738
806,KS,"Wilson, KS",47962,55447.4,2096,1161,45.629999999999995,34.99,19.38,86.5,38.825011,-98.475344
807,KS,"Marshall, KS",50995,58953.76,2100,1301,49.83,30.98,19.19,86.5,39.7865054,-96.5255661
808,KS,"Brown, KS",51906,60006.94,2283,1245,45.74,35.11,19.15,86.5,39.824223,-95.5819952
809,KS,"Pawnee, KS",48441,56001.16,1876,950,43.6,37.44,18.96,86.5,38.1858758,-99.240825
810,KS,"Anderson, KS",52810,61052.02,1596,982,51.04,30.31,18.65,86.5,38.198077,-95.3067461
811,KS,"Hamilton, KS",71468,82621.97,335,305,61.05,20.39,18.56,86.5,37.9799986,-96.1646127
812,KS,"Logan, KS",63461,73365.32,848,353,37.42,44.19,18.39,86.5,39.661675,-99.570385
813,KS,"Wyandotte, KS",39143,45252.02,30879,19242,52.279999999999994,29.4,18.32,86.5,39.1090458,-94.767624
814,KS,"Allen, KS",49326,57024.28,3262,1551,43.58,38.24,18.18,86.5,37.8882168,-95.3170208
815,KS,"Stanton, KS",94353,109078.61,392,241,52.98,29.12,17.9,86.5,37.5691072,-101.7935648
816,KS,"Finney, KS",47523,54939.88,6521,3821,52.019999999999996,30.25,17.73,86.5,38.0452481,-100.8199963
817,KS,"Haskell, KS",70901,81966.47,825,445,50.019999999999996,32.47,17.51,86.5,37.5611249,-100.8840421
818,KS,"Elk, KS",47485,54895.95,594,332,51.16,31.33,17.51,86.5,37.4619149,-96.2528451
819,KS,"Linn, KS",48383,55934.1,2340,1204,48.81,33.8,17.39,86.5,38.1965927,-94.8578272
820,KS,"Comanche, KS",54928,63500.58,541,225,41.209999999999994,41.52,17.27,86.5,37.1960944,-99.2958383
821,KS,"Ford, KS",47052,54395.38,6347,3438,51.56,31.42,17.02,86.5,37.6361315,-99.754016
822,KS,"Kearny, KS",65779,76045.09,579,371,57.29,26.03,16.68,86.5,37.9960049,-101.3523356
823,KS,"Harper, KS",61799,71443.93,1328,623,48.67999999999999,34.93,16.39,86.5,37.2869552,-98.0257389
824,KS,"Morton, KS",58423,67541.04,675,298,46.739999999999995,36.95,16.31,86.5,37.1960735,-101.8099541
825,KS,"Chautauqua, KS",45394,52478.61,903,350,48.050000000000004,37.44,14.51,86.5,37.0203354,-96.1766559
826,KS,"Stevens, KS",52345,60514.45,1318,419,48.440000000000005,39.12,12.44,86.5,37.1929045,-101.3119354
827,KS,"Seward, KS",44209,51108.67,3589,1434,60.73,28.06,11.21,86.5,37.1850331,-100.8928434
828,NJ,"Somerset, NJ",113975,98936.63,44252,128232,25.249999999999993,19.18,55.57,115.2,40.2762189,-74.8490528
829,NJ,"Morris, NJ",107767,93547.74,69357,191526,24.729999999999997,20.01,55.26,115.2,39.9873346,-75.0443388
830,NJ,"Hunterdon, NJ",100288,87055.56,18811,48426,25.009999999999998,20.98,54.01,115.2,40.5770634,-74.9261552
831,NJ,"Bergen, NJ",97343,84499.13,133106,333509,29.11,20.22,50.67,115.2,40.7292686,-74.0656969
832,NJ,"Monmouth, NJ",92119,79964.41,103525,206917,28.97999999999999,23.68,47.34,115.2,40.2556264,-74.00419969992711
833,NJ,"Middlesex, NJ",70221,60955.73,119339,252313,34.64000000000001,20.99,44.37,115.2,40.5734911,-74.494037
834,NJ,"Hudson, NJ",72046,62539.93,83148,211641,38.74,17.28,43.98,115.2,40.74288,-74.134467
835,NJ,"Mercer, NJ",77911,67631.08,51378,108064,35.769999999999996,20.7,43.53,115.2,40.20479765,-74.63453332121965
836,NJ,"Burlington, NJ",69496,60326.39,86533,121559,34.160000000000004,27.38,38.46,115.2,40.0712218,-74.8648859
837,NJ,"Union, NJ",77007,66846.35,82647,140121,41.09,21.86,37.05,115.2,40.6976019,-74.2632024
838,NJ,"Sussex, NJ",71059,61683.16,28920,37222,34.96999999999999,28.43,36.6,115.2,41.2098177,-74.6076614
839,NJ,"Essex, NJ",74310,64505.21,121171,195110,41.239999999999995,22.51,36.25,115.2,40.7913922,-74.2479444
840,NJ,"Warren, NJ",63041,54723.09,20830,26189,38.04,27.45,34.51,115.2,40.60822,-74.51803
841,NJ,"Gloucester, NJ",62553,54299.48,56162,68388,38.45,27.75,33.8,115.2,39.783191,-75.030665
842,NJ,"Cape May, NJ",72010,62508.68,19406,23444,38.68000000000001,27.77,33.55,115.2,38.933431,-74.9214226
843,NJ,"Camden, NJ",61642,53508.68,94505,112738,40.71000000000001,27.04,32.25,115.2,39.9448402,-75.1198911
844,NJ,"Ocean, NJ",60823,52797.74,113965,129422,41.04,27.61,31.35,115.2,40.24801,-74.056551
845,NJ,"Passaic, NJ",59559,51700.52,70978,98692,49.230000000000004,21.24,29.53,115.2,40.8567663,-74.1284764
846,NJ,"Atlantic, NJ",58310,50616.32,49445,53098,44.42,26.8,28.78,115.2,39.45039355,-74.53584969687499
847,NJ,"Salem, NJ",57547,49953.99,12941,9552,48.940000000000005,29.38,21.68,115.2,39.5717796,-75.4671423
848,NJ,"Cumberland, NJ",47559,41283.85,25406,16899,58.39999999999999,24.98,16.62,115.2,39.3698374,-74.9407279
849,OH,"Delaware, OH",83603,91569.55,32036,74919,20.730000000000004,23.74,55.53,91.3,40.2986724,-83.067965
850,OH,"Warren, OH",69581,76211.39,38718,68681,31.65,24.64,43.71,91.3,41.237557,-80.818417
851,OH,"Franklin, OH",58689,64281.49,229819,352515,33.33,26.31,40.36,91.3,39.5589474,-84.3041074
852,OH,"Greene, OH",58363,63924.42,34995,44951,29.479999999999997,30.87,39.65,91.3,41.4620699,-80.7466207
853,OH,"Hamilton, OH",67845,74309.97,149793,214648,33.99,27.13,38.88,91.3,39.3995067,-84.5613428
854,OH,"Geauga, OH",78294,85754.65,17292,24359,35.400000000000006,26.82,37.78,91.3,41.4768249,-81.1850459
855,OH,"Union, OH",64967,71157.72,10389,13923,37.93000000000001,26.52,35.55,91.3,39.912295400000005,-84.30402153529596
856,OH,"Wood, OH",53892,59027.38,24519,27913,35.519999999999996,30.15,34.33,91.3,41.2776661,-83.6643025
857,OH,"Medina, OH",64371,70504.93,37880,42607,35.980000000000004,30.13,33.89,91.3,41.1383878,-81.8637474
858,OH,"Cuyahoga, OH",62790,68773.27,256765,292702,37.2,29.35,33.45,91.3,41.4301347,-81.6905558
859,OH,"Summit, OH",60771,66561.88,112190,124963,37.830000000000005,29.41,32.76,91.3,39.1266104,-84.6219297
860,OH,"Athens, OH",40663,44537.79,9758,11848,41.989999999999995,26.2,31.81,91.3,39.3289242,-82.1012479
861,OH,"Butler, OH",55636,60937.57,67396,76699,41.269999999999996,27.47,31.26,91.3,40.5886946,-82.4258375
862,OH,"Portage, OH",51995,56949.62,27230,31680,44.459999999999994,25.67,29.87,91.3,41.3267189,-83.6507668
863,OH,"Fairfield, OH",55185,60443.59,33204,30706,39.66000000000001,31.35,28.99,91.3,39.3458953,-84.5605031
864,OH,"Clermont, OH",64895,71078.86,41113,41092,42.25,28.88,28.87,91.3,39.07414,-84.182549
865,OH,"Montgomery, OH",54822,60046.0,125750,103483,37.25,34.42,28.33,91.3,39.2282432,-84.3539662
866,OH,"Lake, OH",58960,64578.31,54463,46967,38.839999999999996,32.84,28.32,91.3,39.341405800000004,-84.26704070255775
867,OH,"Hancock, OH",58966,64584.88,15366,14376,42.94,29.48,27.58,91.3,41.1553294,-83.8518834
868,OH,"Licking, OH",54525,59720.7,36634,32787,41.650000000000006,30.79,27.56,91.3,39.979887,-82.422012
869,OH,"Lucas, OH",54105,59260.68,98294,78159,39.790000000000006,33.54,26.67,91.3,40.7037641,-82.41847
870,OH,"Lorain, OH",54452,59640.74,72794,54343,40.76,33.92,25.32,91.3,41.4673238,-82.1781904
871,OH,"Erie, OH",58239,63788.61,17179,13315,42.970000000000006,32.13,24.9,91.3,41.0854133,-80.652812
872,OH,"Mahoning, OH",50968,55824.75,47920,40285,46.07000000000001,29.3,24.63,91.3,41.2589449,-81.0487057
873,OH,"Ottawa, OH",61102,66924.42,9738,7298,44.17,31.91,23.92,91.3,41.0192185,-84.0471666
874,OH,"Stark, OH",52426,57421.69,79378,61112,45.980000000000004,30.52,23.5,91.3,40.7214654,-81.4399734
875,OH,"Putnam, OH",57868,63382.26,6805,5252,46.7,30.08,23.22,91.3,39.9222898,-82.0079148
876,OH,"Miami, OH",54947,60182.91,23365,16693,45.709999999999994,31.67,22.62,91.3,39.187031,-84.694522
877,OH,"Knox, OH",52034,56992.33,12287,9172,47.17,30.25,22.58,91.3,39.2661831,-82.2857055
878,OH,"Wayne, OH",52817,57849.95,19271,17247,52.27,25.19,22.54,91.3,41.3014415,-83.4735393
879,OH,"Ashland, OH",45594,49938.66,9097,7846,52.52000000000001,25.49,21.99,91.3,40.8686147,-82.3175942
880,OH,"Clinton, OH",52090,57053.67,8912,5685,48.56,31.41,20.03,91.3,40.9267224,-81.6304022
881,OH,"Mercer, OH",59089,64719.61,7902,5256,51.53,29.11,19.36,91.3,40.6550474,-84.5855125
882,OH,"Wyandot, OH",54342,59520.26,4344,2961,52.4,28.31,19.29,91.3,40.7314466,-83.1196359
883,OH,"Shelby, OH",52547,57554.22,9474,6266,51.60000000000001,29.13,19.27,91.3,40.881436,-82.6618953
884,OH,"Trumbull, OH",46356,50773.27,37501,27419,54.589999999999996,26.23,19.18,91.3,41.6781106,-80.9539818
885,OH,"Auglaize, OH",54964,60201.53,9584,5961,50.0,30.83,19.17,91.3,41.187423,-84.411512
886,OH,"Clark, OH",47929,52496.17,29417,17423,49.12,31.95,18.93,91.3,40.4489547,-81.9023614
887,OH,"Washington, OH",50549,55365.83,13836,8070,49.32000000000001,32.01,18.67,91.3,39.5364511,-83.4390843
888,OH,"Allen, OH",50353,55151.15,22622,12902,48.63999999999999,32.71,18.65,91.3,40.30419,-84.671767
889,OH,"Pickaway, OH",49425,54134.72,10750,7555,54.86,26.51,18.63,91.3,39.52126,-82.922441
890,OH,"Defiance, OH",47933,52500.55,8304,4781,49.510000000000005,32.04,18.45,91.3,41.2844933,-84.3557802
891,OH,"Preble, OH",48600,53231.11,8394,5257,52.64,29.12,18.24,91.3,39.8125011,-84.6411162
892,OH,"Madison, OH",50124,54900.33,9030,5764,53.510000000000005,28.38,18.11,91.3,41.771163,-81.049819
893,OH,"Tuscarawas, OH",50625,55449.07,15322,11385,58.10000000000001,24.04,17.86,91.3,40.3947887,-81.4070577
894,OH,"Richland, OH",46366,50784.23,25076,15058,52.61,29.61,17.78,91.3,39.1870147,-82.5973848
895,OH,"Henry, OH",52568,57577.22,5990,3301,50.38000000000001,31.99,17.63,91.3,41.216989,-83.714767
896,OH,"Jefferson, OH",47413,51931.0,14113,8240,52.53,29.97,17.5,91.3,41.7383734,-80.7694236
897,OH,"Muskingum, OH",49160,53844.47,17034,10287,53.599999999999994,28.93,17.47,91.3,40.0064162,-81.9984697
898,OH,"Gallia, OH",47674,52216.87,5588,3582,55.480000000000004,27.13,17.39,91.3,38.8309103,-82.5176592
899,OH,"Seneca, OH",47605,52141.29,11146,6467,52.769999999999996,29.89,17.34,91.3,41.043539,-83.247417
900,OH,"Van Wert, OH",49328,54028.48,6079,3348,51.599999999999994,31.21,17.19,91.3,40.8616225,-84.5755178
901,OH,"Logan, OH",50151,54929.9,9392,5339,52.92999999999999,30.01,17.06,91.3,39.5398708,-82.4084891
902,OH,"Fulton, OH",52995,58044.91,9540,4919,49.89,33.06,17.05,91.3,40.4625607,-82.8287896
903,OH,"Sandusky, OH",48982,53649.51,13320,6759,51.129999999999995,32.42,16.45,91.3,41.4561002,-82.7115813
904,OH,"Ross, OH",45596,49940.85,15417,8809,55.56,28.28,16.16,91.3,39.312296,-84.6507966
905,OH,"Belmont, OH",45375,49698.8,15451,8053,52.84,31.0,16.16,91.3,40.0292374,-81.0389883
906,OH,"Hardin, OH",40636,44508.21,4846,3089,58.879999999999995,25.11,16.01,91.3,40.2864377,-84.2421677
907,OH,"Paulding, OH",48972,53638.55,3752,2064,55.17,28.92,15.91,91.3,41.1381051,-84.5805082
908,OH,"Champaign, OH",50151,54929.9,7918,4282,54.72,29.39,15.89,91.3,40.1726987,-83.7701999
909,OH,"Lawrence, OH",46838,51301.2,11695,6678,56.45,27.72,15.83,91.3,38.645079,-82.6734967
910,OH,"Scioto, OH",46946,51419.5,14550,8219,56.779999999999994,27.62,15.6,91.3,40.2803389,-83.1407457
911,OH,"Adams, OH",43092,47198.25,4406,2944,61.25,23.23,15.52,91.3,40.148981,-84.480951
912,OH,"Darke, OH",51549,56461.12,9933,5424,56.370000000000005,28.22,15.41,91.3,40.168765,-84.631372
913,OH,"Crawford, OH",45755,50115.01,8499,4504,55.739999999999995,28.93,15.33,91.3,40.9197777,-83.3421447
914,OH,"Fayette, OH",47851,52410.73,4608,2988,61.24999999999999,23.51,15.24,91.3,41.6733867,-84.3268927
915,OH,"Williams, OH",49310,54008.76,8708,3862,50.889999999999986,34.02,15.09,91.3,41.5018224,-84.5923785
916,OH,"Guernsey, OH",48667,53304.49,7684,4118,56.78,28.14,15.08,91.3,40.1817377,-81.5923431
917,OH,"Ashtabula, OH",46280,50690.03,19433,10221,56.68,28.39,14.93,91.3,41.865054,-80.789809
918,OH,"Coshocton, OH",42403,46443.59,6824,3782,58.25,26.86,14.89,91.3,40.2720151,-81.8595757
919,OH,"Jackson, OH",42680,46746.99,5875,3306,58.81,26.36,14.83,91.3,39.0520169,-82.6365537
920,OH,"Huron, OH",48213,52807.23,11547,5851,56.160000000000004,29.1,14.74,91.3,41.3870728,-82.546215
921,OH,"Morrow, OH",49162,53846.66,7126,3611,56.230000000000004,29.05,14.72,91.3,39.3545046,-84.1271568
922,OH,"Columbiana, OH",45580,49923.33,22138,10743,55.51,29.95,14.54,91.3,40.8886356,-80.6935916
923,OH,"Brown, OH",45795,50158.82,8663,4357,57.239999999999995,28.45,14.31,91.3,39.9417247,-84.0674374
924,OH,"Pike, OH",46730,51182.91,4956,2741,60.1,25.69,14.21,91.3,39.676067,-82.191111
925,OH,"Hocking, OH",46421,50844.47,6131,2773,55.5,30.64,13.86,91.3,39.3678487,-82.2657052
926,OH,"Highland, OH",44454,48690.03,7904,4066,59.38000000000001,26.82,13.8,91.3,39.3445075,-83.5974203
927,OH,"Carroll, OH",48319,52923.33,5300,2594,59.79,27.0,13.21,91.3,39.7989528,-82.7010016
928,OH,"Perry, OH",46028,50414.02,6715,3235,59.89000000000001,27.07,13.04,91.3,41.760326,-81.140932
929,OH,"Marion, OH",43814,47989.05,14868,5977,54.9,32.17,12.93,91.3,40.5886259,-83.1287349
930,OH,"Vinton, OH",42290,46319.82,2230,1176,62.900000000000006,24.29,12.81,91.3,38.9764655,-82.3415421
931,OH,"Harrison, OH",45968,50348.3,2863,1353,61.46,26.17,12.37,91.3,39.25611035,-84.79149017393418
932,OH,"Meigs, OH",43469,47611.17,4492,1978,60.330000000000005,27.54,12.13,91.3,39.1659099,-81.8973589
933,OH,"Monroe, OH",43844,48021.91,2776,1214,60.39,27.56,12.05,91.3,39.4432691,-84.363365
934,OH,"Noble, OH",32713,35830.23,2701,1214,64.4,24.56,11.04,91.3,41.31184,-84.412369
935,OH,"Morgan, OH",43249,47370.21,3177,1095,59.239999999999995,30.31,10.45,91.3,39.348124,-84.760913
936,OH,"Holmes, OH",54118,59274.92,3493,2692,76.15,13.47,10.38,91.3,40.863115,-83.018365
937,WY,"Albany, WY",48528,51461.29,5899,11983,17.51999999999999,27.21,55.27,94.3,41.6684047,-105.6812633
938,WY,"Teton, WY",318297,337536.59,4270,9789,20.939999999999998,24.01,55.05,94.3,43.9139214,-110.6380363
939,WY,"Park, WY",65944,69930.01,7533,7352,29.410000000000004,35.72,34.87,94.3,44.6076072,-109.5678484
940,WY,"Johnson, WY",61294,64998.94,2295,2057,29.93,36.95,33.12,94.3,44.0155638,-106.6140815
941,WY,"Sheridan, WY",64449,68344.64,7978,6597,32.29,37.06,30.65,94.3,44.797194,-106.956179
942,WY,"Laramie, WY",58646,62190.88,25970,20426,31.36,38.42,30.22,94.3,41.311367,-105.591101
943,WY,"Sublette, WY",65620,69586.43,2433,1944,35.33,35.95,28.72,94.3,42.736927,-109.9905911
944,WY,"Goshen, WY",50633,53693.53,3563,2389,36.14,38.23,25.63,94.3,42.0657096,-104.3541422
945,WY,"Fremont, WY",51452,54562.04,9810,6615,38.39,36.8,24.81,94.3,43.0293336,-108.5772551
946,WY,"Crook, WY",51825,54957.58,2010,1248,37.2,38.74,24.06,94.3,44.5746536,-104.5816096
947,WY,"Washakie, WY",60235,63875.93,2174,1313,36.769999999999996,39.42,23.81,94.3,43.9308684,-107.6704088
948,WY,"Hot Springs, WY",78817,83581.12,1547,800,30.93,45.53,23.54,94.3,43.7008749,-108.409568
949,WY,"Natrona, WY",70175,74416.76,22208,12826,35.760000000000005,40.72,23.52,94.3,42.9487008,-106.8465639
950,WY,"Lincoln, WY",61945,65689.29,4951,2921,39.82,37.85,22.33,94.3,42.1765551,-110.7208048
951,WY,"Sweetwater, WY",56934,60375.4,11034,5989,39.71,39.08,21.21,94.3,41.6239475,-108.9702314
952,WY,"Carbon, WY",64804,68721.1,3356,2122,47.14,32.38,20.48,94.3,41.7423474,-106.8625645
953,WY,"Big Horn, WY",47259,50115.59,3254,1600,39.11,40.82,20.07,94.3,44.4952545,-108.0024782
954,WY,"Campbell, WY",56008,59393.43,11380,5964,42.57,37.68,19.75,94.3,44.1908398,-105.5775352
955,WY,"Converse, WY",69583,73788.97,3518,1865,43.2,37.12,19.68,94.3,43.0202459,-105.5046207
956,WY,"Platte, WY",53368,56593.85,2210,1252,46.519999999999996,34.14,19.34,94.3,42.0923141,-104.9870991
957,WY,"Uinta, WY",44157,46826.09,4758,2501,44.559999999999995,36.34,19.1,94.3,41.2631855,-110.5678519
958,WY,"Niobrara, WY",53797,57048.78,711,298,41.769999999999996,41.03,17.2,94.3,43.0087581,-104.4565524
959,WY,"Weston, WY",49526,52519.62,1874,848,44.81999999999999,37.99,17.19,94.3,43.8397865,-104.5361902
960,GA,"Forsyth, GA",73337,82586.71,35775,84463,21.929999999999993,23.23,54.84,88.8,33.0342974,-83.938242
961,GA,"Fulton, GA",102074,114948.2,152216,390293,24.229999999999997,21.26,54.51,88.8,34.0580391,-84.2961283
962,GA,"Oconee, GA",76403,86039.41,6357,12999,24.72,24.72,50.56,88.8,32.8554338,-82.949866
963,GA,"Cobb, GA",67616,76144.14,131540,247382,25.799999999999997,25.76,48.44,88.8,31.9591236,-83.9881802
964,GA,"Fayette, GA",73202,82434.68,21413,36287,25.65,27.59,46.76,88.8,33.3899269,-84.4953763
965,GA,"DeKalb, GA",61861,69663.29,124143,235192,30.340000000000003,24.07,45.59,88.8,33.7575613,-84.2186508
966,GA,"Clarke, GA",40672,45801.8,17467,32680,30.410000000000004,24.24,45.35,88.8,33.9458693,-83.3557816
967,GA,"Gwinnett, GA",50256,56594.59,165597,221368,34.62,27.98,37.4,88.8,33.9566869,-84.0227467
968,GA,"Cherokee, GA",60235,67832.21,54574,63411,31.299999999999997,31.78,36.92,88.8,34.1681526,-84.570765
969,GA,"Columbia, GA",58242,65587.84,33062,37504,31.360000000000007,32.16,36.48,88.8,33.5313102,-82.2563979
970,GA,"Chatham, GA",54586,61470.72,62117,67476,34.010000000000005,31.63,34.36,88.8,32.069798,-81.15612088999877
971,GA,"Dawson, GA",53996,60806.31,5098,6052,38.01,28.34,33.65,88.8,31.7735001,-84.4465827
972,GA,"Coweta, GA",57721,65001.13,29387,32708,36.86000000000001,29.88,33.26,88.8,33.3500656,-84.7545734
973,GA,"Bryan, GA",54772,61680.18,8183,7966,33.18,33.86,32.96,88.8,32.0034889,-81.4241017
974,GA,"Towns, GA",45939,51733.11,2729,2824,35.94,31.48,32.58,88.8,32.0056876,-82.7536605
975,GA,"Harris, GA",56595,63733.11,8640,7921,32.24000000000001,35.35,32.41,88.8,32.96818,-84.71271
976,GA,"Lumpkin, GA",44843,50498.87,5517,6558,42.14999999999999,26.43,31.42,88.8,32.0509895,-84.7990901
977,GA,"Houston, GA",48929,55100.23,35411,31578,34.260000000000005,34.75,30.99,88.8,33.1595654,-85.1377196
978,GA,"Greene, GA",67417,75920.05,3393,4047,43.86000000000001,25.6,30.54,88.8,33.9540032,-83.5304412
979,GA,"Glynn, GA",55351,62332.21,19148,17734,38.27,32.05,29.68,88.8,31.2171726,-81.5012681
980,GA,"Rabun, GA",50488,56855.86,3551,3693,44.31,27.3,28.39,88.8,34.8796123,-83.4251357
981,GA,"Douglas, GA",44779,50426.8,27906,26445,42.16,29.7,28.14,88.8,31.5088073,-82.8498654
982,GA,"Henry, GA",46961,52884.01,48358,41851,39.519999999999996,32.42,28.06,88.8,33.4519942,-84.1367771
983,GA,"Bulloch, GA",37901,42681.31,13990,12092,40.44,31.95,27.61,88.8,32.3846338,-81.744832
984,GA,"Muscogee, GA",49091,55282.66,43640,35091,38.32000000000001,34.19,27.49,88.8,32.4840651,-84.8502167
985,GA,"Rockdale, GA",43042,48470.72,19222,16308,40.720000000000006,32.07,27.21,88.8,33.7870502,-84.4349287
986,GA,"Lee, GA",50409,56766.89,6978,5296,37.17,35.72,27.11,88.8,31.7620158,-84.1346212
987,GA,"Chattahoochee, GA",39690,44695.95,1770,1316,36.71000000000001,36.3,26.99,88.8,33.8084389,-84.4818749
988,GA,"Monroe, GA",52718,59367.12,5058,5109,47.07,26.33,26.6,88.8,33.7948364,-83.713229
989,GA,"Lowndes, GA",43546,49038.29,20250,18050,44.370000000000005,29.41,26.22,88.8,30.8195619,-83.2628255
990,GA,"Bibb, GA",46781,52681.31,30105,25338,44.620000000000005,30.07,25.31,88.8,32.8095879,-83.694562
991,GA,"Baldwin, GA",40542,45655.41,8316,6847,46.099999999999994,29.56,24.34,88.8,34.4917665,-83.5373947
992,GA,"Morgan, GA",57857,65154.28,3727,3227,47.88999999999999,27.93,24.18,88.8,31.5376731,-84.5993601
993,GA,"Thomas, GA",52349,58951.58,9432,7350,44.92999999999999,30.95,24.12,88.8,30.8668623,-83.9460576
994,GA,"Hall, GA",53920,60720.72,35879,31696,48.86,27.15,23.99,88.8,34.2905901,-83.8194028
995,GA,"Effingham, GA",48212,54292.79,11257,9716,48.35,27.72,23.93,88.8,32.2781913,-81.2301076
996,GA,"Paulding, GA",47381,53356.98,38686,25685,40.11999999999999,35.99,23.89,88.8,33.8908526,-84.8569161
997,GA,"Putnam, GA",53019,59706.08,4368,3751,49.16000000000001,27.35,23.49,88.8,32.2587666,-84.4179713
998,GA,"Jackson, GA",49063,55251.13,14190,11178,46.76,29.78,23.46,88.8,33.2945651,-83.9660209
999,GA,"Catoosa, GA",42448,47801.8,15539,10751,43.64,33.31,23.05,88.8,34.929637650000004,-85.14707706052124
